[
  {
    "name_ar": "Kudu",
    "name_en": "Kudu",
    "category": "restaurants",
    "category_ar": "مطاعم",
    "description_ar": "مطاعم في الرياض",
    "lat": 24.6904926,
    "lng": 46.7232179,
    "neighborhood": "",
    "tags": [],
    "perfect_for": [],
    "price_level": "",
    "opening_hours": "",
    "phone": "",
    "website": "",
    "source": "openstreetmap"
  },
  {
    "name_ar": "Firdays",
    "name_en": "Firdays",
    "category": "restaurants",
    "category_ar": "مطاعم",
    "description_ar": "مطاعم في الرياض",
    "lat": 24.7675896,
    "lng": 46.7597589,
    "neighborhood": "",
    "tags": [],
    "perfect_for": [],
    "price_level": "",
    "opening_hours": "",
    "phone": "",
    "website": "",
    "source": "openstreetmap"
  },
  {
    "name_ar": "Shiraz Restaurant (Iranian)",
    "name_en": "Shiraz Restaurant (Iranian)",
    "category": "restaurants",
    "category_ar": "مطاعم",
    "description_ar": "مطاعم في الرياض",
    "lat": 24.7014755,
    "lng": 46.6916745,
    "neighborhood": "",
    "tags": [],
    "perfect_for": [],
    "price_level": "",
    "opening_hours": "",
    "phone": "",
    "website": "",
    "source": "openstreetmap"
  },
  {
    "name_ar": "Al Mansaf",
    "name_en": "Al Mansaf",
    "category": "restaurants",
    "category_ar": "مطاعم",
    "description_ar": "مطاعم في الرياض",
    "lat": 24.711061,
    "lng": 46.6977886,
    "neighborhood": "",
    "tags": [],
    "perfect_for": [],
    "price_level": "",
    "opening_hours": "",
    "phone": "",
    "website": "",
    "source": "openstreetmap"
  },
  {
    "name_ar": "Shawerma House",
    "name_en": "Shawerma House",
    "category": "restaurants",
    "category_ar": "مطاعم",
    "description_ar": "مطاعم في الرياض",
    "lat": 24.7085594,
    "lng": 46.6874735,
    "neighborhood": "",
    "tags": [],
    "perfect_for": [],
    "price_level": "",
    "opening_hours": "",
    "phone": "",
    "website": "",
    "source": "openstreetmap"
  },
  {
    "name_ar": "Hashim Restaurant",
    "name_en": "Hashim Restaurant",
    "category": "restaurants",
    "category_ar": "مطاعم",
    "description_ar": "مطاعم في الرياض",
    "lat": 24.7062361,
    "lng": 46.6993868,
    "neighborhood": "",
    "tags": [],
    "perfect_for": [],
    "price_level": "",
    "opening_hours": "",
    "phone": "",
    "website": "",
    "source": "openstreetmap"
  },
  {
    "name_ar": "Wooden Bakery",
    "name_en": "Wooden Bakery",
    "category": "restaurants",
    "category_ar": "مطاعم",
    "description_ar": "مطاعم في الرياض",
    "lat": 24.6940126,
    "lng": 46.7226448,
    "neighborhood": "",
    "tags": [],
    "perfect_for": [],
    "price_level": "",
    "opening_hours": "",
    "phone": "",
    "website": "",
    "source": "openstreetmap"
  },
  {
    "name_ar": "مطعم باب توما",
    "name_en": "مطعم باب توما",
    "category": "restaurants",
    "category_ar": "مطاعم",
    "description_ar": "Indian restaurant",
    "lat": 24.710645,
    "lng": 46.693098,
    "neighborhood": "",
    "tags": [],
    "perfect_for": [],
    "price_level": "",
    "opening_hours": "",
    "phone": "",
    "website": "",
    "source": "openstreetmap"
  },
  {
    "name_ar": "Roma Restaurant",
    "name_en": "Roma Restaurant",
    "category": "restaurants",
    "category_ar": "مطاعم",
    "description_ar": "مطاعم في الرياض",
    "lat": 24.703405,
    "lng": 46.6820536,
    "neighborhood": "",
    "tags": [],
    "perfect_for": [],
    "price_level": "",
    "opening_hours": "",
    "phone": "",
    "website": "",
    "source": "openstreetmap"
  },
  {
    "name_ar": "Pizza Hut",
    "name_en": "Pizza Hut",
    "category": "restaurants",
    "category_ar": "مطاعم",
    "description_ar": "مطاعم في الرياض",
    "lat": 24.7052277,
    "lng": 46.6854976,
    "neighborhood": "",
    "tags": [],
    "perfect_for": [],
    "price_level": "",
    "opening_hours": "Mo-Su 00:00-02:00,11:00-24:00",
    "phone": "",
    "website": "",
    "source": "openstreetmap"
  },
  {
    "name_ar": "Makani",
    "name_en": "Makani",
    "category": "restaurants",
    "category_ar": "مطاعم",
    "description_ar": "مطاعم في الرياض",
    "lat": 24.7099548,
    "lng": 46.6911624,
    "neighborhood": "",
    "tags": [],
    "perfect_for": [],
    "price_level": "",
    "opening_hours": "",
    "phone": "",
    "website": "",
    "source": "openstreetmap"
  },
  {
    "name_ar": "Lebanon Al Kabeer",
    "name_en": "Lebanon Al Kabeer",
    "category": "restaurants",
    "category_ar": "مطاعم",
    "description_ar": "مطاعم في الرياض",
    "lat": 24.7104422,
    "lng": 46.6924391,
    "neighborhood": "",
    "tags": [],
    "perfect_for": [],
    "price_level": "",
    "opening_hours": "",
    "phone": "",
    "website": "",
    "source": "openstreetmap"
  },
  {
    "name_ar": "Indonesian",
    "name_en": "Indonesian",
    "category": "restaurants",
    "category_ar": "مطاعم",
    "description_ar": "مطاعم في الرياض",
    "lat": 24.7098964,
    "lng": 46.6909907,
    "neighborhood": "",
    "tags": [],
    "perfect_for": [],
    "price_level": "",
    "opening_hours": "",
    "phone": "",
    "website": "",
    "source": "openstreetmap"
  },
  {
    "name_ar": "The Pizza Company",
    "name_en": "The Pizza Company",
    "category": "restaurants",
    "category_ar": "مطاعم",
    "description_ar": "مطاعم في الرياض",
    "lat": 24.7026567,
    "lng": 46.6799824,
    "neighborhood": "",
    "tags": [],
    "perfect_for": [],
    "price_level": "",
    "opening_hours": "",
    "phone": "",
    "website": "",
    "source": "openstreetmap"
  },
  {
    "name_ar": "Chinese Golden Palace",
    "name_en": "Chinese Golden Palace",
    "category": "restaurants",
    "category_ar": "مطاعم",
    "description_ar": "مطاعم في الرياض",
    "lat": 24.7034733,
    "lng": 46.6813777,
    "neighborhood": "",
    "tags": [],
    "perfect_for": [],
    "price_level": "",
    "opening_hours": "",
    "phone": "",
    "website": "",
    "source": "openstreetmap"
  },
  {
    "name_ar": "Gulf Royal Chinese Restaurant",
    "name_en": "Gulf Royal Chinese Restaurant",
    "category": "restaurants",
    "category_ar": "مطاعم",
    "description_ar": "مطاعم في الرياض",
    "lat": 24.7028885,
    "lng": 46.6811631,
    "neighborhood": "",
    "tags": [],
    "perfect_for": [],
    "price_level": "",
    "opening_hours": "",
    "phone": "",
    "website": "",
    "source": "openstreetmap"
  },
  {
    "name_ar": "Steak House",
    "name_en": "Steak House",
    "category": "restaurants",
    "category_ar": "مطاعم",
    "description_ar": "مطاعم في الرياض",
    "lat": 24.6937435,
    "lng": 46.6977074,
    "neighborhood": "",
    "tags": [],
    "perfect_for": [],
    "price_level": "",
    "opening_hours": "",
    "phone": "",
    "website": "",
    "source": "openstreetmap"
  },
  {
    "name_ar": "Chinese restaurant",
    "name_en": "Chinese restaurant",
    "category": "restaurants",
    "category_ar": "مطاعم",
    "description_ar": "مطاعم في الرياض",
    "lat": 24.6941334,
    "lng": 46.6852727,
    "neighborhood": "",
    "tags": [],
    "perfect_for": [],
    "price_level": "",
    "opening_hours": "",
    "phone": "",
    "website": "",
    "source": "openstreetmap"
  },
  {
    "name_ar": "Al Rabe'a",
    "name_en": "Al Rabe'a",
    "category": "restaurants",
    "category_ar": "مطاعم",
    "description_ar": "مطاعم في الرياض",
    "lat": 24.6975196,
    "lng": 46.7805034,
    "neighborhood": "",
    "tags": [],
    "perfect_for": [],
    "price_level": "",
    "opening_hours": "",
    "phone": "",
    "website": "",
    "source": "openstreetmap"
  },
  {
    "name_ar": "Al Yamamah Restaurant",
    "name_en": "Al Yamamah Restaurant",
    "category": "restaurants",
    "category_ar": "مطاعم",
    "description_ar": "مطاعم في الرياض",
    "lat": 24.7159663,
    "lng": 46.7918184,
    "neighborhood": "",
    "tags": [],
    "perfect_for": [],
    "price_level": "",
    "opening_hours": "",
    "phone": "",
    "website": "",
    "source": "openstreetmap"
  },
  {
    "name_ar": "Planet Hollywood",
    "name_en": "Planet Hollywood",
    "category": "restaurants",
    "category_ar": "مطاعم",
    "description_ar": "مطاعم في الرياض",
    "lat": 24.7116691,
    "lng": 46.6752226,
    "neighborhood": "",
    "tags": [],
    "perfect_for": [],
    "price_level": "",
    "opening_hours": "",
    "phone": "",
    "website": "",
    "source": "openstreetmap"
  },
  {
    "name_ar": "Shanghai Express",
    "name_en": "Shanghai Express",
    "category": "restaurants",
    "category_ar": "مطاعم",
    "description_ar": "مطاعم في الرياض",
    "lat": 24.7121272,
    "lng": 46.6750938,
    "neighborhood": "",
    "tags": [],
    "perfect_for": [],
    "price_level": "",
    "opening_hours": "",
    "phone": "",
    "website": "",
    "source": "openstreetmap"
  },
  {
    "name_ar": "Aladdin",
    "name_en": "Aladdin",
    "category": "restaurants",
    "category_ar": "مطاعم",
    "description_ar": "مطاعم في الرياض",
    "lat": 24.7117763,
    "lng": 46.6750402,
    "neighborhood": "",
    "tags": [],
    "perfect_for": [],
    "price_level": "",
    "opening_hours": "",
    "phone": "",
    "website": "",
    "source": "openstreetmap"
  },
  {
    "name_ar": "Kany Restaurant",
    "name_en": "Kany Restaurant",
    "category": "restaurants",
    "category_ar": "مطاعم",
    "description_ar": "مطاعم في الرياض",
    "lat": 24.7008307,
    "lng": 46.6770358,
    "neighborhood": "",
    "tags": [],
    "perfect_for": [],
    "price_level": "",
    "opening_hours": "",
    "phone": "",
    "website": "",
    "source": "openstreetmap"
  },
  {
    "name_ar": "Finzione",
    "name_en": "Finzione",
    "category": "restaurants",
    "category_ar": "مطاعم",
    "description_ar": "مطاعم في الرياض",
    "lat": 24.7044347,
    "lng": 46.7016953,
    "neighborhood": "",
    "tags": [],
    "perfect_for": [],
    "price_level": "",
    "opening_hours": "",
    "phone": "",
    "website": "",
    "source": "openstreetmap"
  },
  {
    "name_ar": "Barbecue Nation",
    "name_en": "Barbecue Nation",
    "category": "restaurants",
    "category_ar": "مطاعم",
    "description_ar": "مطاعم في الرياض",
    "lat": 24.7045947,
    "lng": 46.7018562,
    "neighborhood": "",
    "tags": [],
    "perfect_for": [],
    "price_level": "",
    "opening_hours": "",
    "phone": "",
    "website": "",
    "source": "openstreetmap"
  },
  {
    "name_ar": "Reyash",
    "name_en": "Reyash",
    "category": "restaurants",
    "category_ar": "مطاعم",
    "description_ar": "مطاعم في الرياض",
    "lat": 24.7045029,
    "lng": 46.7019314,
    "neighborhood": "",
    "tags": [],
    "perfect_for": [],
    "price_level": "",
    "opening_hours": "",
    "phone": "",
    "website": "",
    "source": "openstreetmap"
  },
  {
    "name_ar": "Saadiddin Restaurant",
    "name_en": "Saadiddin Restaurant",
    "category": "restaurants",
    "category_ar": "مطاعم",
    "description_ar": "مطاعم في الرياض",
    "lat": 24.725446,
    "lng": 46.778086,
    "neighborhood": "",
    "tags": [],
    "perfect_for": [],
    "price_level": "",
    "opening_hours": "",
    "phone": "",
    "website": "",
    "source": "openstreetmap"
  },
  {
    "name_ar": "Forchetta Italian Grill",
    "name_en": "Forchetta Italian Grill",
    "category": "restaurants",
    "category_ar": "مطاعم",
    "description_ar": "مطاعم في الرياض",
    "lat": 24.724413,
    "lng": 46.778962,
    "neighborhood": "",
    "tags": [],
    "perfect_for": [],
    "price_level": "",
    "opening_hours": "",
    "phone": "",
    "website": "",
    "source": "openstreetmap"
  },
  {
    "name_ar": "Al Kafoura Rest. & Sweets",
    "name_en": "Al Kafoura Rest. & Sweets",
    "category": "restaurants",
    "category_ar": "مطاعم",
    "description_ar": "مطاعم في الرياض",
    "lat": 24.68434,
    "lng": 46.718445,
    "neighborhood": "",
    "tags": [],
    "perfect_for": [],
    "price_level": "",
    "opening_hours": "",
    "phone": "",
    "website": "",
    "source": "openstreetmap"
  },
  {
    "name_ar": "Al Nafoura Rest. & Sweets",
    "name_en": "Al Nafoura Rest. & Sweets",
    "category": "restaurants",
    "category_ar": "مطاعم",
    "description_ar": "مطاعم في الرياض",
    "lat": 24.6884918,
    "lng": 46.7238554,
    "neighborhood": "",
    "tags": [],
    "perfect_for": [],
    "price_level": "",
    "opening_hours": "",
    "phone": "",
    "website": "",
    "source": "openstreetmap"
  },
  {
    "name_ar": "Crown Plaza hotel Riyadh",
    "name_en": "Crown Plaza hotel Riyadh",
    "category": "restaurants",
    "category_ar": "مطاعم",
    "description_ar": "مطاعم في الرياض",
    "lat": 24.6897441,
    "lng": 46.7173539,
    "neighborhood": "",
    "tags": [],
    "perfect_for": [],
    "price_level": "",
    "opening_hours": "",
    "phone": "",
    "website": "",
    "source": "openstreetmap"
  },
  {
    "name_ar": "Quattro",
    "name_en": "Quattro",
    "category": "restaurants",
    "category_ar": "مطاعم",
    "description_ar": "مطاعم في الرياض",
    "lat": 24.7112433,
    "lng": 46.6732363,
    "neighborhood": "",
    "tags": [],
    "perfect_for": [],
    "price_level": "",
    "opening_hours": "",
    "phone": "",
    "website": "",
    "source": "openstreetmap"
  },
  {
    "name_ar": "Yamal Asham",
    "name_en": "Yamal Asham",
    "category": "restaurants",
    "category_ar": "مطاعم",
    "description_ar": "مطاعم في الرياض",
    "lat": 24.6894742,
    "lng": 46.700071,
    "neighborhood": "",
    "tags": [],
    "perfect_for": [],
    "price_level": "",
    "opening_hours": "",
    "phone": "",
    "website": "",
    "source": "openstreetmap"
  },
  {
    "name_ar": "French Corner",
    "name_en": "French Corner",
    "category": "restaurants",
    "category_ar": "مطاعم",
    "description_ar": "مطاعم في الرياض",
    "lat": 24.6925351,
    "lng": 46.7019271,
    "neighborhood": "",
    "tags": [],
    "perfect_for": [],
    "price_level": "",
    "opening_hours": "",
    "phone": "",
    "website": "",
    "source": "openstreetmap"
  },
  {
    "name_ar": "Italian",
    "name_en": "Italian",
    "category": "restaurants",
    "category_ar": "مطاعم",
    "description_ar": "مطاعم في الرياض",
    "lat": 24.7707353,
    "lng": 46.6720081,
    "neighborhood": "",
    "tags": [],
    "perfect_for": [],
    "price_level": "",
    "opening_hours": "",
    "phone": "",
    "website": "",
    "source": "openstreetmap"
  },
  {
    "name_ar": "Buffalo",
    "name_en": "Buffalo",
    "category": "restaurants",
    "category_ar": "مطاعم",
    "description_ar": "مطاعم في الرياض",
    "lat": 24.7017399,
    "lng": 46.6951667,
    "neighborhood": "",
    "tags": [],
    "perfect_for": [],
    "price_level": "",
    "opening_hours": "",
    "phone": "",
    "website": "",
    "source": "openstreetmap"
  },
  {
    "name_ar": "Vapiano",
    "name_en": "Vapiano",
    "category": "restaurants",
    "category_ar": "مطاعم",
    "description_ar": "مطاعم في الرياض",
    "lat": 24.6988545,
    "lng": 46.6907787,
    "neighborhood": "",
    "tags": [],
    "perfect_for": [],
    "price_level": "",
    "opening_hours": "",
    "phone": "",
    "website": "",
    "source": "openstreetmap"
  },
  {
    "name_ar": "مطعم هرفي",
    "name_en": "مطعم هرفي",
    "category": "restaurants",
    "category_ar": "مطاعم",
    "description_ar": "مطاعم في الرياض",
    "lat": 24.7310396,
    "lng": 46.7625149,
    "neighborhood": "",
    "tags": [],
    "perfect_for": [],
    "price_level": "",
    "opening_hours": "",
    "phone": "",
    "website": "https://www.herfy.com/index.php?lang=ar",
    "source": "openstreetmap"
  },
  {
    "name_ar": "Pizza Fusion",
    "name_en": "Pizza Fusion",
    "category": "restaurants",
    "category_ar": "مطاعم",
    "description_ar": "مطاعم في الرياض",
    "lat": 24.6936617,
    "lng": 46.6974285,
    "neighborhood": "",
    "tags": [],
    "perfect_for": [],
    "price_level": "",
    "opening_hours": "",
    "phone": "",
    "website": "",
    "source": "openstreetmap"
  },
  {
    "name_ar": "Darbar Restaurant",
    "name_en": "Darbar Restaurant",
    "category": "restaurants",
    "category_ar": "مطاعم",
    "description_ar": "مطاعم في الرياض",
    "lat": 24.6833024,
    "lng": 46.6885331,
    "neighborhood": "",
    "tags": [],
    "perfect_for": [],
    "price_level": "",
    "opening_hours": "",
    "phone": "",
    "website": "",
    "source": "openstreetmap"
  },
  {
    "name_ar": "Lucky Cafe",
    "name_en": "Lucky Cafe",
    "category": "restaurants",
    "category_ar": "مطاعم",
    "description_ar": "مطاعم في الرياض",
    "lat": 24.6830044,
    "lng": 46.6892504,
    "neighborhood": "",
    "tags": [],
    "perfect_for": [],
    "price_level": "",
    "opening_hours": "",
    "phone": "",
    "website": "",
    "source": "openstreetmap"
  },
  {
    "name_ar": "بر وسمن",
    "name_en": "بر وسمن",
    "category": "restaurants",
    "category_ar": "مطاعم",
    "description_ar": "مطاعم في الرياض",
    "lat": 24.5867466,
    "lng": 46.6673033,
    "neighborhood": "",
    "tags": [],
    "perfect_for": [],
    "price_level": "",
    "opening_hours": "",
    "phone": "",
    "website": "",
    "source": "openstreetmap"
  },
  {
    "name_ar": "Al Khozana - Garden BBQ",
    "name_en": "Al Khozana - Garden BBQ",
    "category": "restaurants",
    "category_ar": "مطاعم",
    "description_ar": "مطاعم في الرياض",
    "lat": 24.6914913,
    "lng": 46.6854179,
    "neighborhood": "",
    "tags": [],
    "perfect_for": [],
    "price_level": "",
    "opening_hours": "",
    "phone": "",
    "website": "",
    "source": "openstreetmap"
  },
  {
    "name_ar": "Koushari Express",
    "name_en": "Koushari Express",
    "category": "restaurants",
    "category_ar": "مطاعم",
    "description_ar": "مطاعم في الرياض",
    "lat": 24.670807,
    "lng": 46.7303883,
    "neighborhood": "",
    "tags": [],
    "perfect_for": [],
    "price_level": "",
    "opening_hours": "",
    "phone": "",
    "website": "",
    "source": "openstreetmap"
  },
  {
    "name_ar": "Gad",
    "name_en": "Gad",
    "category": "restaurants",
    "category_ar": "مطاعم",
    "description_ar": "مطاعم في الرياض",
    "lat": 24.6708964,
    "lng": 46.7309483,
    "neighborhood": "",
    "tags": [],
    "perfect_for": [],
    "price_level": "",
    "opening_hours": "",
    "phone": "",
    "website": "",
    "source": "openstreetmap"
  },
  {
    "name_ar": "Shawaya house",
    "name_en": "Shawaya house",
    "category": "restaurants",
    "category_ar": "مطاعم",
    "description_ar": "مطاعم في الرياض",
    "lat": 24.6713485,
    "lng": 46.7333422,
    "neighborhood": "",
    "tags": [],
    "perfect_for": [],
    "price_level": "",
    "opening_hours": "",
    "phone": "",
    "website": "",
    "source": "openstreetmap"
  },
  {
    "name_ar": "Hashim",
    "name_en": "Hashim",
    "category": "restaurants",
    "category_ar": "مطاعم",
    "description_ar": "مطاعم في الرياض",
    "lat": 24.6676583,
    "lng": 46.7332618,
    "neighborhood": "",
    "tags": [],
    "perfect_for": [],
    "price_level": "",
    "opening_hours": "",
    "phone": "",
    "website": "",
    "source": "openstreetmap"
  },
  {
    "name_ar": "مطعم النقاء",
    "name_en": "Al Naqaa",
    "category": "restaurants",
    "category_ar": "مطاعم",
    "description_ar": "مطاعم في الرياض",
    "lat": 24.6673268,
    "lng": 46.7334763,
    "neighborhood": "",
    "tags": [],
    "perfect_for": [],
    "price_level": "",
    "opening_hours": "",
    "phone": "",
    "website": "",
    "source": "openstreetmap"
  },
  {
    "name_ar": "Ghawar",
    "name_en": "Ghawar",
    "category": "restaurants",
    "category_ar": "مطاعم",
    "description_ar": "مطاعم في الرياض",
    "lat": 24.6697399,
    "lng": 46.7315827,
    "neighborhood": "",
    "tags": [],
    "perfect_for": [],
    "price_level": "",
    "opening_hours": "",
    "phone": "",
    "website": "",
    "source": "openstreetmap"
  },
  {
    "name_ar": "Al Omda",
    "name_en": "Al Omda",
    "category": "restaurants",
    "category_ar": "مطاعم",
    "description_ar": "مطاعم في الرياض",
    "lat": 24.6704321,
    "lng": 46.7313627,
    "neighborhood": "",
    "tags": [],
    "perfect_for": [],
    "price_level": "",
    "opening_hours": "",
    "phone": "",
    "website": "",
    "source": "openstreetmap"
  },
  {
    "name_ar": "Pizza Jarir",
    "name_en": "Pizza Jarir",
    "category": "restaurants",
    "category_ar": "مطاعم",
    "description_ar": "مطاعم في الرياض",
    "lat": 24.6707095,
    "lng": 46.7297606,
    "neighborhood": "",
    "tags": [],
    "perfect_for": [],
    "price_level": "",
    "opening_hours": "",
    "phone": "",
    "website": "",
    "source": "openstreetmap"
  },
  {
    "name_ar": "Mama Mashael",
    "name_en": "Mama Mashael",
    "category": "restaurants",
    "category_ar": "مطاعم",
    "description_ar": "مطاعم في الرياض",
    "lat": 24.6706803,
    "lng": 46.7295246,
    "neighborhood": "",
    "tags": [],
    "perfect_for": [],
    "price_level": "",
    "opening_hours": "",
    "phone": "",
    "website": "",
    "source": "openstreetmap"
  },
  {
    "name_ar": "Baskin Robbins",
    "name_en": "Baskin Robbins",
    "category": "restaurants",
    "category_ar": "مطاعم",
    "description_ar": "مطاعم في الرياض",
    "lat": 24.7640166,
    "lng": 46.7142571,
    "neighborhood": "",
    "tags": [],
    "perfect_for": [],
    "price_level": "",
    "opening_hours": "",
    "phone": "",
    "website": "https://www.baskinrobbins.com/content/baskinrobbins/en.html",
    "source": "openstreetmap"
  },
  {
    "name_ar": "Najd Village",
    "name_en": "Najd Village",
    "category": "restaurants",
    "category_ar": "مطاعم",
    "description_ar": "مطاعم في الرياض",
    "lat": 24.742561,
    "lng": 46.7046388,
    "neighborhood": "",
    "tags": [],
    "perfect_for": [],
    "price_level": "",
    "opening_hours": "",
    "phone": "",
    "website": "",
    "source": "openstreetmap"
  },
  {
    "name_ar": "Shawaya House",
    "name_en": "Shawaya House",
    "category": "restaurants",
    "category_ar": "مطاعم",
    "description_ar": "مطاعم في الرياض",
    "lat": 24.7429454,
    "lng": 46.6724232,
    "neighborhood": "",
    "tags": [],
    "perfect_for": [],
    "price_level": "",
    "opening_hours": "",
    "phone": "",
    "website": "",
    "source": "openstreetmap"
  },
  {
    "name_ar": "Subway",
    "name_en": "Subway",
    "category": "restaurants",
    "category_ar": "مطاعم",
    "description_ar": "مطاعم في الرياض",
    "lat": 24.7312342,
    "lng": 46.6666555,
    "neighborhood": "",
    "tags": [],
    "perfect_for": [],
    "price_level": "",
    "opening_hours": "",
    "phone": "",
    "website": "",
    "source": "openstreetmap"
  },
  {
    "name_ar": "Golden Saj",
    "name_en": "Golden Saj",
    "category": "restaurants",
    "category_ar": "مطاعم",
    "description_ar": "مطاعم في الرياض",
    "lat": 24.7396443,
    "lng": 46.6707885,
    "neighborhood": "",
    "tags": [],
    "perfect_for": [],
    "price_level": "",
    "opening_hours": "",
    "phone": "",
    "website": "",
    "source": "openstreetmap"
  },
  {
    "name_ar": "Al-Romansiah",
    "name_en": "Al-Romansiah",
    "category": "restaurants",
    "category_ar": "مطاعم",
    "description_ar": "مطاعم في الرياض",
    "lat": 24.6958274,
    "lng": 46.7923604,
    "neighborhood": "",
    "tags": [],
    "perfect_for": [],
    "price_level": "",
    "opening_hours": "",
    "phone": "920000144",
    "website": "",
    "source": "openstreetmap"
  },
  {
    "name_ar": "Fateera Hut",
    "name_en": "Fateera Hut",
    "category": "restaurants",
    "category_ar": "مطاعم",
    "description_ar": "مطاعم في الرياض",
    "lat": 24.6956985,
    "lng": 46.7921909,
    "neighborhood": "",
    "tags": [],
    "perfect_for": [],
    "price_level": "",
    "opening_hours": "",
    "phone": "",
    "website": "",
    "source": "openstreetmap"
  },
  {
    "name_ar": "Abdul Rahman Hallab & Sons 1881",
    "name_en": "Abdul Rahman Hallab & Sons 1881",
    "category": "restaurants",
    "category_ar": "مطاعم",
    "description_ar": "مطاعم في الرياض",
    "lat": 24.7088068,
    "lng": 46.7076196,
    "neighborhood": "",
    "tags": [],
    "perfect_for": [],
    "price_level": "",
    "opening_hours": "",
    "phone": "",
    "website": "",
    "source": "openstreetmap"
  },
  {
    "name_ar": "Tony Roma's",
    "name_en": "Tony Roma's",
    "category": "restaurants",
    "category_ar": "مطاعم",
    "description_ar": "مطاعم في الرياض",
    "lat": 24.7027286,
    "lng": 46.6801722,
    "neighborhood": "",
    "tags": [],
    "perfect_for": [],
    "price_level": "",
    "opening_hours": "",
    "phone": "",
    "website": "",
    "source": "openstreetmap"
  },
  {
    "name_ar": "Mensa",
    "name_en": "Mensa",
    "category": "restaurants",
    "category_ar": "مطاعم",
    "description_ar": "مطاعم في الرياض",
    "lat": 24.8095361,
    "lng": 46.7072218,
    "neighborhood": "",
    "tags": [],
    "perfect_for": [],
    "price_level": "",
    "opening_hours": "",
    "phone": "",
    "website": "",
    "source": "openstreetmap"
  },
  {
    "name_ar": "كنتاكي",
    "name_en": "كنتاكي",
    "category": "restaurants",
    "category_ar": "مطاعم",
    "description_ar": "مطاعم في الرياض",
    "lat": 24.6517971,
    "lng": 46.7078563,
    "neighborhood": "",
    "tags": [],
    "perfect_for": [],
    "price_level": "",
    "opening_hours": "",
    "phone": "",
    "website": "",
    "source": "openstreetmap"
  },
  {
    "name_ar": "عمو حمزة",
    "name_en": "عمو حمزة",
    "category": "restaurants",
    "category_ar": "مطاعم",
    "description_ar": "مطاعم في الرياض",
    "lat": 24.6518995,
    "lng": 46.7083525,
    "neighborhood": "",
    "tags": [],
    "perfect_for": [],
    "price_level": "",
    "opening_hours": "",
    "phone": "",
    "website": "",
    "source": "openstreetmap"
  },
  {
    "name_ar": "سلامة",
    "name_en": "سلامة",
    "category": "restaurants",
    "category_ar": "مطاعم",
    "description_ar": "مطاعم في الرياض",
    "lat": 24.6299338,
    "lng": 46.7180707,
    "neighborhood": "",
    "tags": [],
    "perfect_for": [],
    "price_level": "",
    "opening_hours": "",
    "phone": "",
    "website": "",
    "source": "openstreetmap"
  },
  {
    "name_ar": "mento eagmsh",
    "name_en": "mento eagmsh",
    "category": "restaurants",
    "category_ar": "مطاعم",
    "description_ar": "مطاعم في الرياض",
    "lat": 24.8005739,
    "lng": 46.7829763,
    "neighborhood": "",
    "tags": [],
    "perfect_for": [],
    "price_level": "",
    "opening_hours": "",
    "phone": "",
    "website": "",
    "source": "openstreetmap"
  },
  {
    "name_ar": "شيخ البلد",
    "name_en": "شيخ البلد",
    "category": "restaurants",
    "category_ar": "مطاعم",
    "description_ar": "مطاعم في الرياض",
    "lat": 24.6183082,
    "lng": 46.7245099,
    "neighborhood": "",
    "tags": [],
    "perfect_for": [],
    "price_level": "",
    "opening_hours": "",
    "phone": "",
    "website": "",
    "source": "openstreetmap"
  },
  {
    "name_ar": "Mthaq alromansi",
    "name_en": "Mthaq alromansi",
    "category": "restaurants",
    "category_ar": "مطاعم",
    "description_ar": "مطاعم في الرياض",
    "lat": 24.6197718,
    "lng": 46.7447373,
    "neighborhood": "",
    "tags": [],
    "perfect_for": [],
    "price_level": "",
    "opening_hours": "",
    "phone": "",
    "website": "",
    "source": "openstreetmap"
  },
  {
    "name_ar": "شجرة الصفصاف",
    "name_en": "شجرة الصفصاف",
    "category": "restaurants",
    "category_ar": "مطاعم",
    "description_ar": "مطاعم في الرياض",
    "lat": 24.6493605,
    "lng": 46.7066287,
    "neighborhood": "",
    "tags": [],
    "perfect_for": [],
    "price_level": "",
    "opening_hours": "",
    "phone": "",
    "website": "",
    "source": "openstreetmap"
  },
  {
    "name_ar": "الرشيد للحلويات",
    "name_en": "الرشيد للحلويات",
    "category": "restaurants",
    "category_ar": "مطاعم",
    "description_ar": "مطاعم في الرياض",
    "lat": 24.6513981,
    "lng": 46.7065806,
    "neighborhood": "",
    "tags": [],
    "perfect_for": [],
    "price_level": "",
    "opening_hours": "",
    "phone": "",
    "website": "",
    "source": "openstreetmap"
  },
  {
    "name_ar": "احلى حكاية",
    "name_en": "احلى حكاية",
    "category": "restaurants",
    "category_ar": "مطاعم",
    "description_ar": "مطاعم في الرياض",
    "lat": 24.64861,
    "lng": 46.7065257,
    "neighborhood": "",
    "tags": [],
    "perfect_for": [],
    "price_level": "",
    "opening_hours": "",
    "phone": "",
    "website": "",
    "source": "openstreetmap"
  },
  {
    "name_ar": "مطعم روتي",
    "name_en": "مطعم روتي",
    "category": "restaurants",
    "category_ar": "مطاعم",
    "description_ar": "مطاعم في الرياض",
    "lat": 24.6403353,
    "lng": 46.7083444,
    "neighborhood": "",
    "tags": [],
    "perfect_for": [],
    "price_level": "",
    "opening_hours": "",
    "phone": "",
    "website": "",
    "source": "openstreetmap"
  },
  {
    "name_ar": "بروستد كوفي",
    "name_en": "بروستد كوفي",
    "category": "restaurants",
    "category_ar": "مطاعم",
    "description_ar": "مطاعم في الرياض",
    "lat": 24.6401514,
    "lng": 46.7083399,
    "neighborhood": "",
    "tags": [],
    "perfect_for": [],
    "price_level": "",
    "opening_hours": "",
    "phone": "",
    "website": "",
    "source": "openstreetmap"
  },
  {
    "name_ar": "هرفي",
    "name_en": "هرفي",
    "category": "restaurants",
    "category_ar": "مطاعم",
    "description_ar": "مطاعم في الرياض",
    "lat": 24.5829936,
    "lng": 46.6867748,
    "neighborhood": "",
    "tags": [],
    "perfect_for": [],
    "price_level": "",
    "opening_hours": "",
    "phone": "920001111",
    "website": "https://www.herfy.com/ar/restaurant.php",
    "source": "openstreetmap"
  },
  {
    "name_ar": "بياتو",
    "name_en": "بياتو",
    "category": "restaurants",
    "category_ar": "مطاعم",
    "description_ar": "مطاعم في الرياض",
    "lat": 24.8242528,
    "lng": 46.6573739,
    "neighborhood": "",
    "tags": [],
    "perfect_for": [],
    "price_level": "",
    "opening_hours": "",
    "phone": "",
    "website": "",
    "source": "openstreetmap"
  },
  {
    "name_ar": "Hardee's",
    "name_en": "Hardee's",
    "category": "restaurants",
    "category_ar": "مطاعم",
    "description_ar": "مطاعم في الرياض",
    "lat": 24.7042627,
    "lng": 46.6651055,
    "neighborhood": "",
    "tags": [],
    "perfect_for": [],
    "price_level": "",
    "opening_hours": "",
    "phone": "",
    "website": "",
    "source": "openstreetmap"
  },
  {
    "name_ar": "Friday's",
    "name_en": "Friday's",
    "category": "restaurants",
    "category_ar": "مطاعم",
    "description_ar": "مطاعم في الرياض",
    "lat": 24.7044957,
    "lng": 46.6646636,
    "neighborhood": "",
    "tags": [],
    "perfect_for": [],
    "price_level": "",
    "opening_hours": "",
    "phone": "",
    "website": "",
    "source": "openstreetmap"
  },
  {
    "name_ar": "مطعم المراسيم",
    "name_en": "مطعم المراسيم",
    "category": "restaurants",
    "category_ar": "مطاعم",
    "description_ar": "مطاعم في الرياض",
    "lat": 24.5735055,
    "lng": 46.7818385,
    "neighborhood": "",
    "tags": [],
    "perfect_for": [],
    "price_level": "",
    "opening_hours": "",
    "phone": "",
    "website": "",
    "source": "openstreetmap"
  },
  {
    "name_ar": "مطعم ديرتي",
    "name_en": "مطعم ديرتي",
    "category": "restaurants",
    "category_ar": "مطاعم",
    "description_ar": "مطاعم في الرياض",
    "lat": 24.5736652,
    "lng": 46.7852922,
    "neighborhood": "",
    "tags": [],
    "perfect_for": [],
    "price_level": "",
    "opening_hours": "",
    "phone": "",
    "website": "",
    "source": "openstreetmap"
  },
  {
    "name_ar": "بيت الشواية",
    "name_en": "بيت الشواية",
    "category": "restaurants",
    "category_ar": "مطاعم",
    "description_ar": "مطاعم في الرياض",
    "lat": 24.683857,
    "lng": 46.6525395,
    "neighborhood": "",
    "tags": [],
    "perfect_for": [],
    "price_level": "",
    "opening_hours": "",
    "phone": "",
    "website": "http://www.shawayahouse.com",
    "source": "openstreetmap"
  },
  {
    "name_ar": "الرومانسية",
    "name_en": "الرومانسية",
    "category": "restaurants",
    "category_ar": "مطاعم",
    "description_ar": "مطاعم في الرياض",
    "lat": 24.5997746,
    "lng": 46.7486201,
    "neighborhood": "",
    "tags": [],
    "perfect_for": [],
    "price_level": "",
    "opening_hours": "",
    "phone": "",
    "website": "",
    "source": "openstreetmap"
  },
  {
    "name_ar": "كودو",
    "name_en": "كودو",
    "category": "restaurants",
    "category_ar": "مطاعم",
    "description_ar": "مطاعم في الرياض",
    "lat": 24.5996118,
    "lng": 46.7458807,
    "neighborhood": "",
    "tags": [],
    "perfect_for": [],
    "price_level": "",
    "opening_hours": "",
    "phone": "",
    "website": "",
    "source": "openstreetmap"
  },
  {
    "name_ar": "برجر كنج",
    "name_en": "برجر كنج",
    "category": "restaurants",
    "category_ar": "مطاعم",
    "description_ar": "مطاعم في الرياض",
    "lat": 24.5992269,
    "lng": 46.7450868,
    "neighborhood": "",
    "tags": [],
    "perfect_for": [],
    "price_level": "",
    "opening_hours": "",
    "phone": "",
    "website": "",
    "source": "openstreetmap"
  },
  {
    "name_ar": "بيتزا وفطائر شامية",
    "name_en": "بيتزا وفطائر شامية",
    "category": "restaurants",
    "category_ar": "مطاعم",
    "description_ar": "مطاعم في الرياض",
    "lat": 24.6479955,
    "lng": 46.7066944,
    "neighborhood": "",
    "tags": [],
    "perfect_for": [],
    "price_level": "",
    "opening_hours": "",
    "phone": "",
    "website": "",
    "source": "openstreetmap"
  },
  {
    "name_ar": "فلافل ابو بشار مطعم سوري",
    "name_en": "فلافل ابو بشار مطعم سوري",
    "category": "restaurants",
    "category_ar": "مطاعم",
    "description_ar": "مطاعم في الرياض",
    "lat": 24.6476752,
    "lng": 46.7067854,
    "neighborhood": "",
    "tags": [],
    "perfect_for": [],
    "price_level": "",
    "opening_hours": "",
    "phone": "",
    "website": "",
    "source": "openstreetmap"
  },
  {
    "name_ar": "فوال و فلافل مصري",
    "name_en": "فوال و فلافل مصري",
    "category": "restaurants",
    "category_ar": "مطاعم",
    "description_ar": "مطاعم في الرياض",
    "lat": 24.6477987,
    "lng": 46.7067636,
    "neighborhood": "",
    "tags": [],
    "perfect_for": [],
    "price_level": "",
    "opening_hours": "",
    "phone": "",
    "website": "",
    "source": "openstreetmap"
  },
  {
    "name_ar": "B1 burger",
    "name_en": "B1 burger",
    "category": "restaurants",
    "category_ar": "مطاعم",
    "description_ar": "مطاعم في الرياض",
    "lat": 24.6021606,
    "lng": 46.6461011,
    "neighborhood": "",
    "tags": [],
    "perfect_for": [],
    "price_level": "",
    "opening_hours": "",
    "phone": "",
    "website": "",
    "source": "openstreetmap"
  },
  {
    "name_ar": "واحد فول",
    "name_en": "واحد فول",
    "category": "restaurants",
    "category_ar": "مطاعم",
    "description_ar": "مطاعم في الرياض",
    "lat": 24.6609768,
    "lng": 46.7013086,
    "neighborhood": "",
    "tags": [],
    "perfect_for": [],
    "price_level": "",
    "opening_hours": "",
    "phone": "",
    "website": "",
    "source": "openstreetmap"
  },
  {
    "name_ar": "مايسترو",
    "name_en": "مايسترو",
    "category": "restaurants",
    "category_ar": "مطاعم",
    "description_ar": "مطاعم في الرياض",
    "lat": 24.6611514,
    "lng": 46.7011863,
    "neighborhood": "",
    "tags": [],
    "perfect_for": [],
    "price_level": "",
    "opening_hours": "",
    "phone": "",
    "website": "",
    "source": "openstreetmap"
  },
  {
    "name_ar": "صب واي",
    "name_en": "صب واي",
    "category": "restaurants",
    "category_ar": "مطاعم",
    "description_ar": "مطاعم في الرياض",
    "lat": 24.6612257,
    "lng": 46.701098,
    "neighborhood": "",
    "tags": [],
    "perfect_for": [],
    "price_level": "",
    "opening_hours": "",
    "phone": "",
    "website": "",
    "source": "openstreetmap"
  },
  {
    "name_ar": "مطعم بخاري",
    "name_en": "مطعم بخاري",
    "category": "restaurants",
    "category_ar": "مطاعم",
    "description_ar": "مطاعم في الرياض",
    "lat": 24.8029841,
    "lng": 46.7933498,
    "neighborhood": "",
    "tags": [],
    "perfect_for": [],
    "price_level": "",
    "opening_hours": "",
    "phone": "",
    "website": "",
    "source": "openstreetmap"
  },
  {
    "name_ar": "العباسية",
    "name_en": "العباسية",
    "category": "restaurants",
    "category_ar": "مطاعم",
    "description_ar": "مطاعم في الرياض",
    "lat": 24.6183482,
    "lng": 46.7270326,
    "neighborhood": "",
    "tags": [],
    "perfect_for": [],
    "price_level": "",
    "opening_hours": "",
    "phone": "",
    "website": "",
    "source": "openstreetmap"
  },
  {
    "name_ar": "مطعم الرومانسيه",
    "name_en": "مطعم الرومانسيه",
    "category": "restaurants",
    "category_ar": "مطاعم",
    "description_ar": "مطاعم في الرياض",
    "lat": 24.5747347,
    "lng": 46.6077444,
    "neighborhood": "",
    "tags": [],
    "perfect_for": [],
    "price_level": "",
    "opening_hours": "",
    "phone": "",
    "website": "",
    "source": "openstreetmap"
  },
  {
    "name_ar": "الوسام",
    "name_en": "الوسام",
    "category": "restaurants",
    "category_ar": "مطاعم",
    "description_ar": "مطاعم في الرياض",
    "lat": 24.6807883,
    "lng": 46.7005638,
    "neighborhood": "",
    "tags": [],
    "perfect_for": [],
    "price_level": "",
    "opening_hours": "",
    "phone": "",
    "website": "",
    "source": "openstreetmap"
  },
  {
    "name_ar": "بروستد البيه",
    "name_en": "بروستد البيه",
    "category": "restaurants",
    "category_ar": "مطاعم",
    "description_ar": "مطاعم في الرياض",
    "lat": 24.583683,
    "lng": 46.687793,
    "neighborhood": "",
    "tags": [],
    "perfect_for": [],
    "price_level": "",
    "opening_hours": "",
    "phone": "",
    "website": "",
    "source": "openstreetmap"
  },
  {
    "name_ar": "بيتزا ان",
    "name_en": "بيتزا ان",
    "category": "restaurants",
    "category_ar": "مطاعم",
    "description_ar": "مطاعم في الرياض",
    "lat": 24.58378,
    "lng": 46.687974,
    "neighborhood": "",
    "tags": [],
    "perfect_for": [],
    "price_level": "",
    "opening_hours": "",
    "phone": "",
    "website": "",
    "source": "openstreetmap"
  },
  {
    "name_ar": "الشواية",
    "name_en": "الشواية",
    "category": "restaurants",
    "category_ar": "مطاعم",
    "description_ar": "مطاعم في الرياض",
    "lat": 24.583475,
    "lng": 46.687281,
    "neighborhood": "",
    "tags": [],
    "perfect_for": [],
    "price_level": "",
    "opening_hours": "",
    "phone": "",
    "website": "",
    "source": "openstreetmap"
  },
  {
    "name_ar": "الصاج الذهبي",
    "name_en": "الصاج الذهبي",
    "category": "restaurants",
    "category_ar": "مطاعم",
    "description_ar": "مطاعم في الرياض",
    "lat": 24.6447405,
    "lng": 46.7006307,
    "neighborhood": "",
    "tags": [],
    "perfect_for": [],
    "price_level": "",
    "opening_hours": "",
    "phone": "",
    "website": "",
    "source": "openstreetmap"
  },
  {
    "name_ar": "KFC",
    "name_en": "KFC",
    "category": "restaurants",
    "category_ar": "مطاعم",
    "description_ar": "مطاعم في الرياض",
    "lat": 24.6381869,
    "lng": 46.7142261,
    "neighborhood": "",
    "tags": [],
    "perfect_for": [],
    "price_level": "",
    "opening_hours": "",
    "phone": "",
    "website": "",
    "source": "openstreetmap"
  },
  {
    "name_ar": "The Pancake House",
    "name_en": "The Pancake House",
    "category": "restaurants",
    "category_ar": "مطاعم",
    "description_ar": "مطاعم في الرياض",
    "lat": 24.7079737,
    "lng": 46.6751704,
    "neighborhood": "",
    "tags": [],
    "perfect_for": [],
    "price_level": "",
    "opening_hours": "",
    "phone": "",
    "website": "",
    "source": "openstreetmap"
  },
  {
    "name_ar": "Al al Fandi Brosted",
    "name_en": "Al al Fandi Brosted",
    "category": "restaurants",
    "category_ar": "مطاعم",
    "description_ar": "مطاعم في الرياض",
    "lat": 24.6926247,
    "lng": 46.650158,
    "neighborhood": "",
    "tags": [],
    "perfect_for": [],
    "price_level": "",
    "opening_hours": "",
    "phone": "",
    "website": "",
    "source": "openstreetmap"
  },
  {
    "name_ar": "القرية النجدية",
    "name_en": "القرية النجدية",
    "category": "restaurants",
    "category_ar": "مطاعم",
    "description_ar": "مطاعم في الرياض",
    "lat": 24.7351821,
    "lng": 46.7075464,
    "neighborhood": "",
    "tags": [],
    "perfect_for": [],
    "price_level": "",
    "opening_hours": "",
    "phone": "",
    "website": "",
    "source": "openstreetmap"
  },
  {
    "name_ar": "Applebee's",
    "name_en": "Applebee's",
    "category": "restaurants",
    "category_ar": "مطاعم",
    "description_ar": "مطاعم في الرياض",
    "lat": 24.658699,
    "lng": 46.7839466,
    "neighborhood": "",
    "tags": [],
    "perfect_for": [],
    "price_level": "",
    "opening_hours": "",
    "phone": "",
    "website": "",
    "source": "openstreetmap"
  },
  {
    "name_ar": "Bombay Hotel",
    "name_en": "Bombay Hotel",
    "category": "restaurants",
    "category_ar": "مطاعم",
    "description_ar": "مطاعم في الرياض",
    "lat": 24.6784326,
    "lng": 46.7434388,
    "neighborhood": "",
    "tags": [],
    "perfect_for": [],
    "price_level": "",
    "opening_hours": "06:00-23:00",
    "phone": "",
    "website": "",
    "source": "openstreetmap"
  },
  {
    "name_ar": "Express Arabic & Persian Restaurant",
    "name_en": "Express Arabic & Persian Restaurant",
    "category": "restaurants",
    "category_ar": "مطاعم",
    "description_ar": "مطاعم في الرياض",
    "lat": 24.678041,
    "lng": 46.7435589,
    "neighborhood": "",
    "tags": [],
    "perfect_for": [],
    "price_level": "",
    "opening_hours": "",
    "phone": "",
    "website": "",
    "source": "openstreetmap"
  },
  {
    "name_ar": "مطعم اللبنان الكبير",
    "name_en": "",
    "category": "restaurants",
    "category_ar": "مطاعم",
    "description_ar": "مطاعم في الرياض",
    "lat": 24.7102401,
    "lng": 46.692768,
    "neighborhood": "",
    "tags": [],
    "perfect_for": [],
    "price_level": "",
    "opening_hours": "",
    "phone": "",
    "website": "",
    "source": "openstreetmap"
  },
  {
    "name_ar": "فلفلة",
    "name_en": "FilFila",
    "category": "restaurants",
    "category_ar": "مطاعم",
    "description_ar": "مطاعم في الرياض",
    "lat": 24.7403049,
    "lng": 46.7793296,
    "neighborhood": "",
    "tags": [],
    "perfect_for": [],
    "price_level": "",
    "opening_hours": "Mo-Su 05:00-23:55",
    "phone": "+966112377711",
    "website": "http://www.filfila.sa",
    "source": "openstreetmap"
  },
  {
    "name_ar": "لقمه شهيه",
    "name_en": "",
    "category": "restaurants",
    "category_ar": "مطاعم",
    "description_ar": "مطاعم في الرياض",
    "lat": 24.6206217,
    "lng": 46.5458783,
    "neighborhood": "",
    "tags": [],
    "perfect_for": [],
    "price_level": "",
    "opening_hours": "24/7",
    "phone": "",
    "website": "",
    "source": "openstreetmap"
  },
  {
    "name_ar": "مطاعم المشوي والشوايه",
    "name_en": "",
    "category": "restaurants",
    "category_ar": "مطاعم",
    "description_ar": "مطاعم في الرياض",
    "lat": 24.6508357,
    "lng": 46.5608642,
    "neighborhood": "",
    "tags": [],
    "perfect_for": [],
    "price_level": "",
    "opening_hours": "",
    "phone": "",
    "website": "",
    "source": "openstreetmap"
  },
  {
    "name_ar": "مطعم بيتزا روما",
    "name_en": "pizza roma restaurant",
    "category": "restaurants",
    "category_ar": "مطاعم",
    "description_ar": "مطاعم في الرياض",
    "lat": 24.7006387,
    "lng": 46.6922802,
    "neighborhood": "",
    "tags": [],
    "perfect_for": [],
    "price_level": "",
    "opening_hours": "",
    "phone": "",
    "website": "",
    "source": "openstreetmap"
  },
  {
    "name_ar": "Khana Khazana Hara",
    "name_en": "Khana Khazana Hara",
    "category": "restaurants",
    "category_ar": "مطاعم",
    "description_ar": "مطاعم في الرياض",
    "lat": 24.6654974,
    "lng": 46.7098783,
    "neighborhood": "",
    "tags": [],
    "perfect_for": [],
    "price_level": "",
    "opening_hours": "",
    "phone": "",
    "website": "",
    "source": "openstreetmap"
  },
  {
    "name_ar": "peking restaurant",
    "name_en": "peking restaurant",
    "category": "restaurants",
    "category_ar": "مطاعم",
    "description_ar": "مطاعم في الرياض",
    "lat": 24.6946112,
    "lng": 46.7153134,
    "neighborhood": "",
    "tags": [],
    "perfect_for": [],
    "price_level": "",
    "opening_hours": "",
    "phone": "",
    "website": "",
    "source": "openstreetmap"
  },
  {
    "name_ar": "مطعم فول وعدس",
    "name_en": "",
    "category": "restaurants",
    "category_ar": "مطاعم",
    "description_ar": "مطاعم في الرياض",
    "lat": 24.7090425,
    "lng": 46.6795473,
    "neighborhood": "",
    "tags": [],
    "perfect_for": [],
    "price_level": "",
    "opening_hours": "",
    "phone": "",
    "website": "",
    "source": "openstreetmap"
  },
  {
    "name_ar": "مطعم الشراع",
    "name_en": "مطعم الشراع",
    "category": "restaurants",
    "category_ar": "مطاعم",
    "description_ar": "مطاعم في الرياض",
    "lat": 24.5835627,
    "lng": 46.6618948,
    "neighborhood": "",
    "tags": [],
    "perfect_for": [],
    "price_level": "",
    "opening_hours": "Mo-Su 08:00-02:00",
    "phone": "",
    "website": "",
    "source": "openstreetmap"
  },
  {
    "name_ar": "مطعم الرومانسية",
    "name_en": "مطعم الرومانسية",
    "category": "restaurants",
    "category_ar": "مطاعم",
    "description_ar": "مطاعم في الرياض",
    "lat": 24.5710246,
    "lng": 46.6675235,
    "neighborhood": "",
    "tags": [],
    "perfect_for": [],
    "price_level": "",
    "opening_hours": "Mo-Su 10:00-00:00",
    "phone": "",
    "website": "",
    "source": "openstreetmap"
  },
  {
    "name_ar": "مطعم كرم العرب",
    "name_en": "مطعم كرم العرب",
    "category": "restaurants",
    "category_ar": "مطاعم",
    "description_ar": "مطاعم في الرياض",
    "lat": 24.6135832,
    "lng": 46.7336857,
    "neighborhood": "",
    "tags": [],
    "perfect_for": [],
    "price_level": "",
    "opening_hours": "",
    "phone": "",
    "website": "",
    "source": "openstreetmap"
  },
  {
    "name_ar": "مطعم نثري",
    "name_en": "مطعم نثري",
    "category": "restaurants",
    "category_ar": "مطاعم",
    "description_ar": "مطاعم في الرياض",
    "lat": 24.5750926,
    "lng": 46.6758243,
    "neighborhood": "",
    "tags": [],
    "perfect_for": [],
    "price_level": "",
    "opening_hours": "",
    "phone": "",
    "website": "",
    "source": "openstreetmap"
  },
  {
    "name_ar": "Lahori Khabay",
    "name_en": "Lahori Khabay",
    "category": "restaurants",
    "category_ar": "مطاعم",
    "description_ar": "مطاعم في الرياض",
    "lat": 24.6782117,
    "lng": 46.7077776,
    "neighborhood": "",
    "tags": [],
    "perfect_for": [],
    "price_level": "",
    "opening_hours": "",
    "phone": "",
    "website": "",
    "source": "openstreetmap"
  },
  {
    "name_ar": "Red Cherry Restaurant",
    "name_en": "Red Cherry Restaurant",
    "category": "restaurants",
    "category_ar": "مطاعم",
    "description_ar": "مطاعم في الرياض",
    "lat": 24.665281,
    "lng": 46.710807,
    "neighborhood": "",
    "tags": [],
    "perfect_for": [],
    "price_level": "",
    "opening_hours": "",
    "phone": "",
    "website": "",
    "source": "openstreetmap"
  },
  {
    "name_ar": "حلويات ابو أنس",
    "name_en": "",
    "category": "restaurants",
    "category_ar": "مطاعم",
    "description_ar": "مطاعم في الرياض",
    "lat": 24.7112924,
    "lng": 46.6944795,
    "neighborhood": "",
    "tags": [],
    "perfect_for": [],
    "price_level": "",
    "opening_hours": "",
    "phone": "",
    "website": "",
    "source": "openstreetmap"
  },
  {
    "name_ar": "مطاعم و حلويات النافورة",
    "name_en": "",
    "category": "restaurants",
    "category_ar": "مطاعم",
    "description_ar": "مطاعم في الرياض",
    "lat": 24.6574201,
    "lng": 46.7060194,
    "neighborhood": "",
    "tags": [],
    "perfect_for": [],
    "price_level": "",
    "opening_hours": "",
    "phone": "",
    "website": "",
    "source": "openstreetmap"
  },
  {
    "name_ar": "شارع سدير",
    "name_en": "شارع سدير",
    "category": "restaurants",
    "category_ar": "مطاعم",
    "description_ar": "مطاعم في الرياض",
    "lat": 24.5730724,
    "lng": 46.655093,
    "neighborhood": "",
    "tags": [],
    "perfect_for": [],
    "price_level": "",
    "opening_hours": "",
    "phone": "",
    "website": "",
    "source": "openstreetmap"
  },
  {
    "name_ar": "ماكدونالدز",
    "name_en": "McDonalds",
    "category": "restaurants",
    "category_ar": "مطاعم",
    "description_ar": "مطاعم في الرياض",
    "lat": 24.7538716,
    "lng": 46.8243562,
    "neighborhood": "",
    "tags": [],
    "perfect_for": [],
    "price_level": "",
    "opening_hours": "",
    "phone": "",
    "website": "",
    "source": "openstreetmap"
  },
  {
    "name_ar": "توم توم",
    "name_en": "Restaurant",
    "category": "restaurants",
    "category_ar": "مطاعم",
    "description_ar": "مطاعم في الرياض",
    "lat": 24.7100206,
    "lng": 46.7752609,
    "neighborhood": "",
    "tags": [],
    "perfect_for": [],
    "price_level": "",
    "opening_hours": "",
    "phone": "",
    "website": "",
    "source": "openstreetmap"
  },
  {
    "name_ar": "Riyadh Chinese Restaurant",
    "name_en": "Riyadh Chinese Restaurant",
    "category": "restaurants",
    "category_ar": "مطاعم",
    "description_ar": "مطاعم في الرياض",
    "lat": 24.7115405,
    "lng": 46.697097,
    "neighborhood": "",
    "tags": [],
    "perfect_for": [],
    "price_level": "",
    "opening_hours": "",
    "phone": "",
    "website": "",
    "source": "openstreetmap"
  },
  {
    "name_ar": "مطاعم التنهات",
    "name_en": "",
    "category": "restaurants",
    "category_ar": "مطاعم",
    "description_ar": "مطاعم في الرياض",
    "lat": 24.5741241,
    "lng": 46.6744553,
    "neighborhood": "",
    "tags": [],
    "perfect_for": [],
    "price_level": "",
    "opening_hours": "",
    "phone": "",
    "website": "",
    "source": "openstreetmap"
  },
  {
    "name_ar": "جست تشل",
    "name_en": "Just chill",
    "category": "restaurants",
    "category_ar": "مطاعم",
    "description_ar": "مطاعم في الرياض",
    "lat": 24.7614566,
    "lng": 46.6739618,
    "neighborhood": "",
    "tags": [],
    "perfect_for": [],
    "price_level": "",
    "opening_hours": "",
    "phone": "",
    "website": "",
    "source": "openstreetmap"
  },
  {
    "name_ar": "شباب البخاري",
    "name_en": "شباب البخاري",
    "category": "restaurants",
    "category_ar": "مطاعم",
    "description_ar": "مطاعم في الرياض",
    "lat": 24.8843959,
    "lng": 46.6110214,
    "neighborhood": "",
    "tags": [],
    "perfect_for": [],
    "price_level": "",
    "opening_hours": "",
    "phone": "",
    "website": "",
    "source": "openstreetmap"
  },
  {
    "name_ar": "Shikara Restaurant",
    "name_en": "",
    "category": "restaurants",
    "category_ar": "مطاعم",
    "description_ar": "مطاعم في الرياض",
    "lat": 24.7128171,
    "lng": 46.6711407,
    "neighborhood": "",
    "tags": [],
    "perfect_for": [],
    "price_level": "",
    "opening_hours": "Mo-Su 00:30-23:00",
    "phone": "+966112305333",
    "website": "",
    "source": "openstreetmap"
  },
  {
    "name_ar": "Akariya 3 Food Court",
    "name_en": "Akariya 3 Food Court",
    "category": "restaurants",
    "category_ar": "مطاعم",
    "description_ar": "مطاعم في الرياض",
    "lat": 24.7053464,
    "lng": 46.6833325,
    "neighborhood": "",
    "tags": [],
    "perfect_for": [],
    "price_level": "",
    "opening_hours": "",
    "phone": "",
    "website": "",
    "source": "openstreetmap"
  },
  {
    "name_ar": "La Piazza",
    "name_en": "La Piazza",
    "category": "restaurants",
    "category_ar": "مطاعم",
    "description_ar": "مطاعم في الرياض",
    "lat": 24.7273506,
    "lng": 46.6651178,
    "neighborhood": "",
    "tags": [],
    "perfect_for": [],
    "price_level": "",
    "opening_hours": "Sa-Th 16:00-24:00; Fr 15:00-23:30",
    "phone": "+966114543300",
    "website": "",
    "source": "openstreetmap"
  },
  {
    "name_ar": "Al Bustan",
    "name_en": "Al Bustan",
    "category": "restaurants",
    "category_ar": "مطاعم",
    "description_ar": "مطاعم في الرياض",
    "lat": 24.7273506,
    "lng": 46.6650473,
    "neighborhood": "",
    "tags": [],
    "perfect_for": [],
    "price_level": "",
    "opening_hours": "Su-Th 06:30-10:00, Fr-Sa 06:30-10:30, Su-Th 12:00-15:00, Fr 12:30-15:30, Sa 13:00-16:00, Su-Fr 19:00-23:00",
    "phone": "",
    "website": "",
    "source": "openstreetmap"
  },
  {
    "name_ar": "Transit Passenger Lounge",
    "name_en": "Transit Passenger Lounge",
    "category": "restaurants",
    "category_ar": "مطاعم",
    "description_ar": "مطاعم في الرياض",
    "lat": 24.9621993,
    "lng": 46.7012485,
    "neighborhood": "",
    "tags": [],
    "perfect_for": [],
    "price_level": "",
    "opening_hours": "",
    "phone": "",
    "website": "",
    "source": "openstreetmap"
  },
  {
    "name_ar": "Plaza Premium Lounge",
    "name_en": "Plaza Premium Lounge",
    "category": "restaurants",
    "category_ar": "مطاعم",
    "description_ar": "مطاعم في الرياض",
    "lat": 24.9632381,
    "lng": 46.7007528,
    "neighborhood": "",
    "tags": [],
    "perfect_for": [],
    "price_level": "",
    "opening_hours": "",
    "phone": "",
    "website": "",
    "source": "openstreetmap"
  },
  {
    "name_ar": "Saudia Alfursan Lounge",
    "name_en": "Saudia Alfursan Lounge",
    "category": "restaurants",
    "category_ar": "مطاعم",
    "description_ar": "مطاعم في الرياض",
    "lat": 24.9613016,
    "lng": 46.7020506,
    "neighborhood": "",
    "tags": [],
    "perfect_for": [],
    "price_level": "",
    "opening_hours": "",
    "phone": "",
    "website": "",
    "source": "openstreetmap"
  },
  {
    "name_ar": "California Pizza Kitchen",
    "name_en": "California Pizza Kitchen",
    "category": "restaurants",
    "category_ar": "مطاعم",
    "description_ar": "مطاعم في الرياض",
    "lat": 24.703971,
    "lng": 46.7025525,
    "neighborhood": "",
    "tags": [],
    "perfect_for": [],
    "price_level": "",
    "opening_hours": "",
    "phone": "",
    "website": "",
    "source": "openstreetmap"
  },
  {
    "name_ar": "أقوس",
    "name_en": "Agus",
    "category": "restaurants",
    "category_ar": "مطاعم",
    "description_ar": "مطاعم في الرياض",
    "lat": 24.7039122,
    "lng": 46.7024194,
    "neighborhood": "",
    "tags": [],
    "perfect_for": [],
    "price_level": "",
    "opening_hours": "",
    "phone": "",
    "website": "",
    "source": "openstreetmap"
  },
  {
    "name_ar": "مطعم النافورة",
    "name_en": "مطعم النافورة",
    "category": "restaurants",
    "category_ar": "مطاعم",
    "description_ar": "مطاعم في الرياض",
    "lat": 24.7990314,
    "lng": 46.78546,
    "neighborhood": "",
    "tags": [],
    "perfect_for": [],
    "price_level": "",
    "opening_hours": "",
    "phone": "",
    "website": "",
    "source": "openstreetmap"
  },
  {
    "name_ar": "Raising Cane's - Chicken Fingers",
    "name_en": "Raising Cane's - Chicken Fingers",
    "category": "restaurants",
    "category_ar": "مطاعم",
    "description_ar": "مطاعم في الرياض",
    "lat": 24.6892064,
    "lng": 46.6736943,
    "neighborhood": "",
    "tags": [],
    "perfect_for": [],
    "price_level": "",
    "opening_hours": "",
    "phone": "",
    "website": "",
    "source": "openstreetmap"
  },
  {
    "name_ar": "Al Nafourah Restaurant",
    "name_en": "Al Nafourah Restaurant",
    "category": "restaurants",
    "category_ar": "مطاعم",
    "description_ar": "مطاعم في الرياض",
    "lat": 24.6833207,
    "lng": 46.7184462,
    "neighborhood": "",
    "tags": [],
    "perfect_for": [],
    "price_level": "",
    "opening_hours": "",
    "phone": "",
    "website": "",
    "source": "openstreetmap"
  },
  {
    "name_ar": "Lahore Restaurent",
    "name_en": "Lahore Restaurent",
    "category": "restaurants",
    "category_ar": "مطاعم",
    "description_ar": "مطاعم في الرياض",
    "lat": 24.6743841,
    "lng": 46.7445923,
    "neighborhood": "",
    "tags": [],
    "perfect_for": [],
    "price_level": "",
    "opening_hours": "",
    "phone": "",
    "website": "",
    "source": "openstreetmap"
  },
  {
    "name_ar": "Bharath Restaurant",
    "name_en": "Bharath Restaurant",
    "category": "restaurants",
    "category_ar": "مطاعم",
    "description_ar": "مطاعم في الرياض",
    "lat": 24.6747018,
    "lng": 46.7444784,
    "neighborhood": "",
    "tags": [],
    "perfect_for": [],
    "price_level": "",
    "opening_hours": "",
    "phone": "",
    "website": "",
    "source": "openstreetmap"
  },
  {
    "name_ar": "مطعم السبيعي",
    "name_en": "مطعم السبيعي",
    "category": "restaurants",
    "category_ar": "مطاعم",
    "description_ar": "مطاعم في الرياض",
    "lat": 24.598203,
    "lng": 46.685459,
    "neighborhood": "",
    "tags": [],
    "perfect_for": [],
    "price_level": "",
    "opening_hours": "",
    "phone": "",
    "website": "",
    "source": "openstreetmap"
  },
  {
    "name_ar": "Kampai",
    "name_en": "Kampai",
    "category": "restaurants",
    "category_ar": "مطاعم",
    "description_ar": "مطاعم في الرياض",
    "lat": 24.7038856,
    "lng": 46.7023006,
    "neighborhood": "",
    "tags": [],
    "perfect_for": [],
    "price_level": "",
    "opening_hours": "",
    "phone": "",
    "website": "",
    "source": "openstreetmap"
  },
  {
    "name_ar": "كرم بيروت",
    "name_en": "Karam Beirut",
    "category": "restaurants",
    "category_ar": "مطاعم",
    "description_ar": "مطاعم في الرياض",
    "lat": 24.7037638,
    "lng": 46.7020215,
    "neighborhood": "",
    "tags": [],
    "perfect_for": [],
    "price_level": "",
    "opening_hours": "",
    "phone": "",
    "website": "",
    "source": "openstreetmap"
  },
  {
    "name_ar": "Bab Al Yemen Restaurant",
    "name_en": "Bab Al Yemen Restaurant",
    "category": "restaurants",
    "category_ar": "مطاعم",
    "description_ar": "مطاعم في الرياض",
    "lat": 24.6919474,
    "lng": 46.6787006,
    "neighborhood": "",
    "tags": [],
    "perfect_for": [],
    "price_level": "",
    "opening_hours": "",
    "phone": "",
    "website": "",
    "source": "openstreetmap"
  },
  {
    "name_ar": "Mayrig",
    "name_en": "Mayrig",
    "category": "restaurants",
    "category_ar": "مطاعم",
    "description_ar": "مطاعم في الرياض",
    "lat": 24.6940866,
    "lng": 46.6791025,
    "neighborhood": "",
    "tags": [],
    "perfect_for": [],
    "price_level": "",
    "opening_hours": "",
    "phone": "",
    "website": "http://www.mayrigriyadh.com",
    "source": "openstreetmap"
  },
  {
    "name_ar": "Farooj Alcarawan",
    "name_en": "Farooj Alcarawan",
    "category": "restaurants",
    "category_ar": "مطاعم",
    "description_ar": "مطاعم في الرياض",
    "lat": 24.6938721,
    "lng": 46.6785357,
    "neighborhood": "",
    "tags": [],
    "perfect_for": [],
    "price_level": "",
    "opening_hours": "",
    "phone": "",
    "website": "",
    "source": "openstreetmap"
  },
  {
    "name_ar": "Zaatar w Zeit",
    "name_en": "Zaatar w Zeit",
    "category": "restaurants",
    "category_ar": "مطاعم",
    "description_ar": "مطاعم في الرياض",
    "lat": 24.7032121,
    "lng": 46.6988688,
    "neighborhood": "",
    "tags": [],
    "perfect_for": [],
    "price_level": "",
    "opening_hours": "",
    "phone": "",
    "website": "",
    "source": "openstreetmap"
  },
  {
    "name_ar": "Le Relais de l'Entrecote",
    "name_en": "Le Relais de l'Entrecote",
    "category": "restaurants",
    "category_ar": "مطاعم",
    "description_ar": "مطاعم في الرياض",
    "lat": 24.7039466,
    "lng": 46.7023537,
    "neighborhood": "",
    "tags": [],
    "perfect_for": [],
    "price_level": "",
    "opening_hours": "",
    "phone": "",
    "website": "",
    "source": "openstreetmap"
  },
  {
    "name_ar": "Kababji",
    "name_en": "Kababji",
    "category": "restaurants",
    "category_ar": "مطاعم",
    "description_ar": "مطاعم في الرياض",
    "lat": 24.7030862,
    "lng": 46.6986114,
    "neighborhood": "",
    "tags": [],
    "perfect_for": [],
    "price_level": "",
    "opening_hours": "",
    "phone": "",
    "website": "",
    "source": "openstreetmap"
  },
  {
    "name_ar": "Porterhouse بورترهاوس",
    "name_en": "Porterhouse بورترهاوس",
    "category": "restaurants",
    "category_ar": "مطاعم",
    "description_ar": "مطاعم في الرياض",
    "lat": 24.6939734,
    "lng": 46.6788359,
    "neighborhood": "",
    "tags": [],
    "perfect_for": [],
    "price_level": "",
    "opening_hours": "",
    "phone": "",
    "website": "",
    "source": "openstreetmap"
  },
  {
    "name_ar": "Sultana Moroccan Restaurant",
    "name_en": "Sultana Moroccan Restaurant",
    "category": "restaurants",
    "category_ar": "مطاعم",
    "description_ar": "مطاعم في الرياض",
    "lat": 24.7100597,
    "lng": 46.6632003,
    "neighborhood": "",
    "tags": [],
    "perfect_for": [],
    "price_level": "",
    "opening_hours": "",
    "phone": "",
    "website": "",
    "source": "openstreetmap"
  },
  {
    "name_ar": "hotdog express",
    "name_en": "hotdog express",
    "category": "restaurants",
    "category_ar": "مطاعم",
    "description_ar": "مطاعم في الرياض",
    "lat": 24.8004505,
    "lng": 46.7396469,
    "neighborhood": "",
    "tags": [],
    "perfect_for": [],
    "price_level": "",
    "opening_hours": "",
    "phone": "",
    "website": "",
    "source": "openstreetmap"
  },
  {
    "name_ar": "OULU Lounge",
    "name_en": "OULU Lounge",
    "category": "restaurants",
    "category_ar": "مطاعم",
    "description_ar": "مطاعم في الرياض",
    "lat": 24.7104405,
    "lng": 46.6631414,
    "neighborhood": "",
    "tags": [],
    "perfect_for": [],
    "price_level": "",
    "opening_hours": "",
    "phone": "",
    "website": "",
    "source": "openstreetmap"
  },
  {
    "name_ar": "Fairouz Garden",
    "name_en": "Fairouz Garden",
    "category": "restaurants",
    "category_ar": "مطاعم",
    "description_ar": "مطاعم في الرياض",
    "lat": 24.7080046,
    "lng": 46.675289,
    "neighborhood": "",
    "tags": [],
    "perfect_for": [],
    "price_level": "",
    "opening_hours": "",
    "phone": "",
    "website": "",
    "source": "openstreetmap"
  },
  {
    "name_ar": "Freshii",
    "name_en": "Freshii",
    "category": "restaurants",
    "category_ar": "مطاعم",
    "description_ar": "مطاعم في الرياض",
    "lat": 24.6741686,
    "lng": 46.6683897,
    "neighborhood": "",
    "tags": [],
    "perfect_for": [],
    "price_level": "",
    "opening_hours": "",
    "phone": "",
    "website": "",
    "source": "openstreetmap"
  },
  {
    "name_ar": "Maestro Pizza",
    "name_en": "Maestro Pizza",
    "category": "restaurants",
    "category_ar": "مطاعم",
    "description_ar": "مطاعم في الرياض",
    "lat": 24.6742966,
    "lng": 46.6682167,
    "neighborhood": "",
    "tags": [],
    "perfect_for": [],
    "price_level": "",
    "opening_hours": "",
    "phone": "",
    "website": "",
    "source": "openstreetmap"
  },
  {
    "name_ar": "Alkhafeef",
    "name_en": "Alkhafeef",
    "category": "restaurants",
    "category_ar": "مطاعم",
    "description_ar": "مطاعم في الرياض",
    "lat": 24.6843449,
    "lng": 46.7911624,
    "neighborhood": "",
    "tags": [],
    "perfect_for": [],
    "price_level": "",
    "opening_hours": "",
    "phone": "",
    "website": "https://alkhafeef.com.sa/",
    "source": "openstreetmap"
  },
  {
    "name_ar": "Al-Rajhi Bank Operations Center Cafeteria",
    "name_en": "Al-Rajhi Bank Operations Center Cafeteria",
    "category": "restaurants",
    "category_ar": "مطاعم",
    "description_ar": "مطاعم في الرياض",
    "lat": 24.7524201,
    "lng": 46.63106,
    "neighborhood": "",
    "tags": [],
    "perfect_for": [],
    "price_level": "",
    "opening_hours": "",
    "phone": "",
    "website": "",
    "source": "openstreetmap"
  },
  {
    "name_ar": "مطعم انار كلي",
    "name_en": "مطعم انار كلي",
    "category": "restaurants",
    "category_ar": "مطاعم",
    "description_ar": "مطاعم في الرياض",
    "lat": 24.579005,
    "lng": 46.8186497,
    "neighborhood": "",
    "tags": [],
    "perfect_for": [],
    "price_level": "",
    "opening_hours": "",
    "phone": "",
    "website": "",
    "source": "openstreetmap"
  },
  {
    "name_ar": "Charcoza Grill",
    "name_en": "Charcoza Grill",
    "category": "restaurants",
    "category_ar": "مطاعم",
    "description_ar": "مطاعم في الرياض",
    "lat": 24.7799522,
    "lng": 46.6939272,
    "neighborhood": "",
    "tags": [],
    "perfect_for": [],
    "price_level": "",
    "opening_hours": "",
    "phone": "",
    "website": "",
    "source": "openstreetmap"
  },
  {
    "name_ar": "بول",
    "name_en": "Paul",
    "category": "restaurants",
    "category_ar": "مطاعم",
    "description_ar": "مطاعم في الرياض",
    "lat": 24.7808456,
    "lng": 46.6974026,
    "neighborhood": "",
    "tags": [],
    "perfect_for": [],
    "price_level": "",
    "opening_hours": "",
    "phone": "",
    "website": "",
    "source": "openstreetmap"
  },
  {
    "name_ar": "مندي الرياض",
    "name_en": "مندي الرياض",
    "category": "restaurants",
    "category_ar": "مطاعم",
    "description_ar": "مطاعم في الرياض",
    "lat": 24.8124136,
    "lng": 46.6263538,
    "neighborhood": "",
    "tags": [],
    "perfect_for": [],
    "price_level": "",
    "opening_hours": "Mo-Su 06:00-01:00",
    "phone": "+966 9200 02149",
    "website": "https://restaurant-46764.business.site/",
    "source": "openstreetmap"
  },
  {
    "name_ar": "Ritual",
    "name_en": "Ritual",
    "category": "restaurants",
    "category_ar": "مطاعم",
    "description_ar": "مطاعم في الرياض",
    "lat": 24.697574,
    "lng": 46.687515,
    "neighborhood": "",
    "tags": [],
    "perfect_for": [],
    "price_level": "",
    "opening_hours": "",
    "phone": "",
    "website": "",
    "source": "openstreetmap"
  },
  {
    "name_ar": "Fire Grill",
    "name_en": "Fire Grill",
    "category": "restaurants",
    "category_ar": "مطاعم",
    "description_ar": "مطاعم في الرياض",
    "lat": 24.6981585,
    "lng": 46.6869063,
    "neighborhood": "",
    "tags": [],
    "perfect_for": [],
    "price_level": "",
    "opening_hours": "",
    "phone": "",
    "website": "",
    "source": "openstreetmap"
  },
  {
    "name_ar": "Soho Club",
    "name_en": "Soho Club",
    "category": "restaurants",
    "category_ar": "مطاعم",
    "description_ar": "مطاعم في الرياض",
    "lat": 24.698188,
    "lng": 46.6870941,
    "neighborhood": "",
    "tags": [],
    "perfect_for": [],
    "price_level": "",
    "opening_hours": "",
    "phone": "",
    "website": "",
    "source": "openstreetmap"
  },
  {
    "name_ar": "Embers",
    "name_en": "Embers",
    "category": "restaurants",
    "category_ar": "مطاعم",
    "description_ar": "مطاعم في الرياض",
    "lat": 24.6985206,
    "lng": 46.6874904,
    "neighborhood": "",
    "tags": [],
    "perfect_for": [],
    "price_level": "",
    "opening_hours": "",
    "phone": "",
    "website": "",
    "source": "openstreetmap"
  },
  {
    "name_ar": "Paul",
    "name_en": "Paul",
    "category": "restaurants",
    "category_ar": "مطاعم",
    "description_ar": "مطاعم في الرياض",
    "lat": 24.6973391,
    "lng": 46.6865854,
    "neighborhood": "",
    "tags": [],
    "perfect_for": [],
    "price_level": "",
    "opening_hours": "",
    "phone": "",
    "website": "",
    "source": "openstreetmap"
  },
  {
    "name_ar": "Manoosha",
    "name_en": "Manoosha",
    "category": "restaurants",
    "category_ar": "مطاعم",
    "description_ar": "مطاعم في الرياض",
    "lat": 24.7457208,
    "lng": 46.6196273,
    "neighborhood": "",
    "tags": [],
    "perfect_for": [],
    "price_level": "",
    "opening_hours": "",
    "phone": "",
    "website": "",
    "source": "openstreetmap"
  },
  {
    "name_ar": "سنشري برجر",
    "name_en": "Century Burger",
    "category": "restaurants",
    "category_ar": "مطاعم",
    "description_ar": "مطاعم في الرياض",
    "lat": 24.7460514,
    "lng": 46.6192607,
    "neighborhood": "",
    "tags": [],
    "perfect_for": [],
    "price_level": "",
    "opening_hours": "",
    "phone": "",
    "website": "",
    "source": "openstreetmap"
  },
  {
    "name_ar": "Bab al Yemen",
    "name_en": "Bab al Yemen",
    "category": "restaurants",
    "category_ar": "مطاعم",
    "description_ar": "مطاعم في الرياض",
    "lat": 24.7366039,
    "lng": 46.5746494,
    "neighborhood": "",
    "tags": [],
    "perfect_for": [],
    "price_level": "",
    "opening_hours": "",
    "phone": "",
    "website": "",
    "source": "openstreetmap"
  },
  {
    "name_ar": "Al Najd Village",
    "name_en": "Al Najd Village",
    "category": "restaurants",
    "category_ar": "مطاعم",
    "description_ar": "مطاعم في الرياض",
    "lat": 24.7360859,
    "lng": 46.5752377,
    "neighborhood": "",
    "tags": [],
    "perfect_for": [],
    "price_level": "",
    "opening_hours": "",
    "phone": "",
    "website": "",
    "source": "openstreetmap"
  },
  {
    "name_ar": "مطعم فول ورز بخاري",
    "name_en": "مطعم فول ورز بخاري",
    "category": "restaurants",
    "category_ar": "مطاعم",
    "description_ar": "مطاعم في الرياض",
    "lat": 24.6111112,
    "lng": 46.8608744,
    "neighborhood": "",
    "tags": [],
    "perfect_for": [],
    "price_level": "",
    "opening_hours": "",
    "phone": "",
    "website": "",
    "source": "openstreetmap"
  },
  {
    "name_ar": "Malaz",
    "name_en": "Malaz",
    "category": "restaurants",
    "category_ar": "مطاعم",
    "description_ar": "مطاعم في الرياض",
    "lat": 24.6782083,
    "lng": 46.7278106,
    "neighborhood": "",
    "tags": [],
    "perfect_for": [],
    "price_level": "",
    "opening_hours": "",
    "phone": "",
    "website": "",
    "source": "openstreetmap"
  },
  {
    "name_ar": "مطعم الناضج",
    "name_en": "مطعم الناضج",
    "category": "restaurants",
    "category_ar": "مطاعم",
    "description_ar": "مطاعم في الرياض",
    "lat": 24.7871017,
    "lng": 46.746418,
    "neighborhood": "",
    "tags": [],
    "perfect_for": [],
    "price_level": "",
    "opening_hours": "",
    "phone": "",
    "website": "",
    "source": "openstreetmap"
  },
  {
    "name_ar": "The Lamb Shack",
    "name_en": "The Lamb Shack",
    "category": "restaurants",
    "category_ar": "مطاعم",
    "description_ar": "مطاعم في الرياض",
    "lat": 24.793833,
    "lng": 46.6547551,
    "neighborhood": "",
    "tags": [],
    "perfect_for": [],
    "price_level": "",
    "opening_hours": "",
    "phone": "",
    "website": "",
    "source": "openstreetmap"
  },
  {
    "name_ar": "Mshagith",
    "name_en": "Mshagith",
    "category": "restaurants",
    "category_ar": "مطاعم",
    "description_ar": "مطاعم في الرياض",
    "lat": 24.817417,
    "lng": 46.7329654,
    "neighborhood": "",
    "tags": [],
    "perfect_for": [],
    "price_level": "",
    "opening_hours": "",
    "phone": "",
    "website": "",
    "source": "openstreetmap"
  },
  {
    "name_ar": "Shrimplus",
    "name_en": "Shrimplus",
    "category": "restaurants",
    "category_ar": "مطاعم",
    "description_ar": "مطاعم في الرياض",
    "lat": 24.8180863,
    "lng": 46.6425574,
    "neighborhood": "",
    "tags": [],
    "perfect_for": [],
    "price_level": "",
    "opening_hours": "",
    "phone": "",
    "website": "",
    "source": "openstreetmap"
  },
  {
    "name_ar": "Nano Kitchen",
    "name_en": "Nano Kitchen",
    "category": "restaurants",
    "category_ar": "مطاعم",
    "description_ar": "مطاعم في الرياض",
    "lat": 24.7340037,
    "lng": 46.6974471,
    "neighborhood": "",
    "tags": [],
    "perfect_for": [],
    "price_level": "",
    "opening_hours": "",
    "phone": "",
    "website": "",
    "source": "openstreetmap"
  },
  {
    "name_ar": "Wild Zaatar",
    "name_en": "Wild Zaatar",
    "category": "restaurants",
    "category_ar": "مطاعم",
    "description_ar": "مطاعم في الرياض",
    "lat": 24.8040635,
    "lng": 46.6941242,
    "neighborhood": "",
    "tags": [],
    "perfect_for": [],
    "price_level": "",
    "opening_hours": "",
    "phone": "059 988 0704",
    "website": "",
    "source": "openstreetmap"
  },
  {
    "name_ar": "ركن السنافي للشورما",
    "name_en": "ركن السنافي للشورما",
    "category": "restaurants",
    "category_ar": "مطاعم",
    "description_ar": "مطاعم في الرياض",
    "lat": 24.6898078,
    "lng": 46.7643928,
    "neighborhood": "",
    "tags": [],
    "perfect_for": [],
    "price_level": "",
    "opening_hours": "",
    "phone": "",
    "website": "",
    "source": "openstreetmap"
  },
  {
    "name_ar": "مطعم كمون البخاري",
    "name_en": "مطعم كمون البخاري",
    "category": "restaurants",
    "category_ar": "مطاعم",
    "description_ar": "مطاعم في الرياض",
    "lat": 24.6851879,
    "lng": 46.7667693,
    "neighborhood": "",
    "tags": [],
    "perfect_for": [],
    "price_level": "",
    "opening_hours": "",
    "phone": "",
    "website": "",
    "source": "openstreetmap"
  },
  {
    "name_ar": "مطعم الربوة مضغوط مندي",
    "name_en": "مطعم الربوة مضغوط مندي",
    "category": "restaurants",
    "category_ar": "مطاعم",
    "description_ar": "مطاعم في الرياض",
    "lat": 24.6877925,
    "lng": 46.7657586,
    "neighborhood": "",
    "tags": [],
    "perfect_for": [],
    "price_level": "",
    "opening_hours": "",
    "phone": "",
    "website": "",
    "source": "openstreetmap"
  },
  {
    "name_ar": "فوال الخرطوم",
    "name_en": "فوال الخرطوم",
    "category": "restaurants",
    "category_ar": "مطاعم",
    "description_ar": "مطاعم في الرياض",
    "lat": 24.6887974,
    "lng": 46.764801,
    "neighborhood": "",
    "tags": [],
    "perfect_for": [],
    "price_level": "",
    "opening_hours": "",
    "phone": "",
    "website": "",
    "source": "openstreetmap"
  },
  {
    "name_ar": "مطعم ترمز البخاري",
    "name_en": "مطعم ترمز البخاري",
    "category": "restaurants",
    "category_ar": "مطاعم",
    "description_ar": "مطاعم في الرياض",
    "lat": 24.6836765,
    "lng": 46.7673858,
    "neighborhood": "",
    "tags": [],
    "perfect_for": [],
    "price_level": "",
    "opening_hours": "",
    "phone": "",
    "website": "",
    "source": "openstreetmap"
  },
  {
    "name_ar": "Najd village",
    "name_en": "Najd village",
    "category": "restaurants",
    "category_ar": "مطاعم",
    "description_ar": "مطاعم في الرياض",
    "lat": 24.6912083,
    "lng": 46.6725928,
    "neighborhood": "",
    "tags": [],
    "perfect_for": [],
    "price_level": "",
    "opening_hours": "",
    "phone": "",
    "website": "",
    "source": "openstreetmap"
  },
  {
    "name_ar": "Eggsactly",
    "name_en": "Eggsactly",
    "category": "restaurants",
    "category_ar": "مطاعم",
    "description_ar": "مطاعم في الرياض",
    "lat": 24.8171078,
    "lng": 46.6875647,
    "neighborhood": "",
    "tags": [],
    "perfect_for": [],
    "price_level": "",
    "opening_hours": "6:00-15:00",
    "phone": "",
    "website": "https://www.instagram.com/eggsactly.sa/",
    "source": "openstreetmap"
  },
  {
    "name_ar": "مطعم",
    "name_en": "مطعم",
    "category": "restaurants",
    "category_ar": "مطاعم",
    "description_ar": "مطاعم في الرياض",
    "lat": 25.0748,
    "lng": 46.7116,
    "neighborhood": "",
    "tags": [],
    "perfect_for": [],
    "price_level": "",
    "opening_hours": "",
    "phone": "",
    "website": "",
    "source": "openstreetmap"
  },
  {
    "name_ar": "latifa restaurant",
    "name_en": "latifa restaurant",
    "category": "restaurants",
    "category_ar": "مطاعم",
    "description_ar": "مطاعم في الرياض",
    "lat": 24.6368868,
    "lng": 46.7118971,
    "neighborhood": "",
    "tags": [],
    "perfect_for": [],
    "price_level": "",
    "opening_hours": "",
    "phone": "",
    "website": "",
    "source": "openstreetmap"
  },
  {
    "name_ar": "Tokio Japanese Restaurant",
    "name_en": "Tokio Japanese Restaurant",
    "category": "restaurants",
    "category_ar": "مطاعم",
    "description_ar": "مطاعم في الرياض",
    "lat": 24.7670034,
    "lng": 46.6593779,
    "neighborhood": "",
    "tags": [],
    "perfect_for": [],
    "price_level": "",
    "opening_hours": "",
    "phone": "",
    "website": "",
    "source": "openstreetmap"
  },
  {
    "name_ar": "Topkapi Turkish Restaurant",
    "name_en": "Topkapi Turkish Restaurant",
    "category": "restaurants",
    "category_ar": "مطاعم",
    "description_ar": "مطاعم في الرياض",
    "lat": 24.7673823,
    "lng": 46.6597538,
    "neighborhood": "",
    "tags": [],
    "perfect_for": [],
    "price_level": "",
    "opening_hours": "",
    "phone": "",
    "website": "",
    "source": "openstreetmap"
  },
  {
    "name_ar": "Amaly Indian Restaurant",
    "name_en": "Amaly Indian Restaurant",
    "category": "restaurants",
    "category_ar": "مطاعم",
    "description_ar": "مطاعم في الرياض",
    "lat": 24.7667736,
    "lng": 46.6596068,
    "neighborhood": "",
    "tags": [],
    "perfect_for": [],
    "price_level": "",
    "opening_hours": "",
    "phone": "",
    "website": "",
    "source": "openstreetmap"
  },
  {
    "name_ar": "Mizo Eatery",
    "name_en": "Mizo Eatery",
    "category": "restaurants",
    "category_ar": "مطاعم",
    "description_ar": "مطاعم في الرياض",
    "lat": 24.767318,
    "lng": 46.6594862,
    "neighborhood": "",
    "tags": [],
    "perfect_for": [],
    "price_level": "",
    "opening_hours": "",
    "phone": "",
    "website": "",
    "source": "openstreetmap"
  },
  {
    "name_ar": "Margherita Italian Restaurant",
    "name_en": "Margherita Italian Restaurant",
    "category": "restaurants",
    "category_ar": "مطاعم",
    "description_ar": "مطاعم في الرياض",
    "lat": 24.7672552,
    "lng": 46.6592807,
    "neighborhood": "",
    "tags": [],
    "perfect_for": [],
    "price_level": "",
    "opening_hours": "",
    "phone": "",
    "website": "",
    "source": "openstreetmap"
  },
  {
    "name_ar": "Gold Sushi Club",
    "name_en": "Gold Sushi Club",
    "category": "restaurants",
    "category_ar": "مطاعم",
    "description_ar": "مطاعم في الرياض",
    "lat": 24.7527335,
    "lng": 46.6249425,
    "neighborhood": "",
    "tags": [],
    "perfect_for": [],
    "price_level": "",
    "opening_hours": "Mo-Su 13:00-01:00",
    "phone": "+966114993330",
    "website": "https://goldsushiclub.com/",
    "source": "openstreetmap"
  },
  {
    "name_ar": "فوال عربة الفول",
    "name_en": "فوال عربة الفول",
    "category": "restaurants",
    "category_ar": "مطاعم",
    "description_ar": "مطاعم في الرياض",
    "lat": 24.8271,
    "lng": 46.7963,
    "neighborhood": "",
    "tags": [],
    "perfect_for": [],
    "price_level": "",
    "opening_hours": "",
    "phone": "",
    "website": "",
    "source": "openstreetmap"
  },
  {
    "name_ar": "مطعم حنيذ الجنوب",
    "name_en": "مطعم حنيذ الجنوب",
    "category": "restaurants",
    "category_ar": "مطاعم",
    "description_ar": "مطاعم في الرياض",
    "lat": 24.8299,
    "lng": 46.8098,
    "neighborhood": "",
    "tags": [],
    "perfect_for": [],
    "price_level": "",
    "opening_hours": "",
    "phone": "",
    "website": "",
    "source": "openstreetmap"
  },
  {
    "name_ar": "فوال الافراح",
    "name_en": "فوال الافراح",
    "category": "restaurants",
    "category_ar": "مطاعم",
    "description_ar": "مطاعم في الرياض",
    "lat": 24.823,
    "lng": 46.7994,
    "neighborhood": "",
    "tags": [],
    "perfect_for": [],
    "price_level": "",
    "opening_hours": "",
    "phone": "",
    "website": "",
    "source": "openstreetmap"
  },
  {
    "name_ar": "مطعم أسماك",
    "name_en": "مطعم أسماك",
    "category": "restaurants",
    "category_ar": "مطاعم",
    "description_ar": "مطاعم في الرياض",
    "lat": 24.8223,
    "lng": 46.7999,
    "neighborhood": "",
    "tags": [],
    "perfect_for": [],
    "price_level": "",
    "opening_hours": "",
    "phone": "",
    "website": "",
    "source": "openstreetmap"
  },
  {
    "name_ar": "شاورمر Shawarmer",
    "name_en": "شاورمر Shawarmer",
    "category": "restaurants",
    "category_ar": "مطاعم",
    "description_ar": "مطاعم في الرياض",
    "lat": 24.81146,
    "lng": 46.6261625,
    "neighborhood": "",
    "tags": [],
    "perfect_for": [],
    "price_level": "",
    "opening_hours": "",
    "phone": "",
    "website": "",
    "source": "openstreetmap"
  },
  {
    "name_ar": "شاك برجر Shack Burger",
    "name_en": "شاك برجر Shack Burger",
    "category": "restaurants",
    "category_ar": "مطاعم",
    "description_ar": "مطاعم في الرياض",
    "lat": 24.8115222,
    "lng": 46.6263078,
    "neighborhood": "",
    "tags": [],
    "perfect_for": [],
    "price_level": "",
    "opening_hours": "",
    "phone": "",
    "website": "",
    "source": "openstreetmap"
  },
  {
    "name_ar": "ذوق الحجازي",
    "name_en": "ذوق الحجازي",
    "category": "restaurants",
    "category_ar": "مطاعم",
    "description_ar": "مطاعم في الرياض",
    "lat": 24.812489,
    "lng": 46.6285748,
    "neighborhood": "",
    "tags": [],
    "perfect_for": [],
    "price_level": "",
    "opening_hours": "",
    "phone": "",
    "website": "",
    "source": "openstreetmap"
  },
  {
    "name_ar": "عريشة أوراق العنب",
    "name_en": "عريشة أوراق العنب",
    "category": "restaurants",
    "category_ar": "مطاعم",
    "description_ar": "مطاعم في الرياض",
    "lat": 24.8127717,
    "lng": 46.6292445,
    "neighborhood": "",
    "tags": [],
    "perfect_for": [],
    "price_level": "",
    "opening_hours": "",
    "phone": "",
    "website": "",
    "source": "openstreetmap"
  },
  {
    "name_ar": "تيستي تيس",
    "name_en": "تيستي تيس",
    "category": "restaurants",
    "category_ar": "مطاعم",
    "description_ar": "مطاعم في الرياض",
    "lat": 24.8134507,
    "lng": 46.631227,
    "neighborhood": "",
    "tags": [],
    "perfect_for": [],
    "price_level": "",
    "opening_hours": "",
    "phone": "",
    "website": "",
    "source": "openstreetmap"
  },
  {
    "name_ar": "شاورما دالي",
    "name_en": "شاورما دالي",
    "category": "restaurants",
    "category_ar": "مطاعم",
    "description_ar": "مطاعم في الرياض",
    "lat": 24.8134934,
    "lng": 46.6313248,
    "neighborhood": "",
    "tags": [],
    "perfect_for": [],
    "price_level": "",
    "opening_hours": "",
    "phone": "",
    "website": "",
    "source": "openstreetmap"
  },
  {
    "name_ar": "عثمان بيك",
    "name_en": "عثمان بيك",
    "category": "restaurants",
    "category_ar": "مطاعم",
    "description_ar": "مطاعم في الرياض",
    "lat": 24.8135438,
    "lng": 46.631436,
    "neighborhood": "",
    "tags": [],
    "perfect_for": [],
    "price_level": "",
    "opening_hours": "",
    "phone": "",
    "website": "",
    "source": "openstreetmap"
  },
  {
    "name_ar": "أسماك الزيتون",
    "name_en": "أسماك الزيتون",
    "category": "restaurants",
    "category_ar": "مطاعم",
    "description_ar": "مطاعم في الرياض",
    "lat": 24.8135877,
    "lng": 46.6315412,
    "neighborhood": "",
    "tags": [],
    "perfect_for": [],
    "price_level": "",
    "opening_hours": "",
    "phone": "",
    "website": "",
    "source": "openstreetmap"
  },
  {
    "name_ar": "قصر المهراجا",
    "name_en": "قصر المهراجا",
    "category": "restaurants",
    "category_ar": "مطاعم",
    "description_ar": "مطاعم في الرياض",
    "lat": 24.813786,
    "lng": 46.6320281,
    "neighborhood": "",
    "tags": [],
    "perfect_for": [],
    "price_level": "",
    "opening_hours": "",
    "phone": "",
    "website": "",
    "source": "openstreetmap"
  },
  {
    "name_ar": "العنابي",
    "name_en": "العنابي",
    "category": "restaurants",
    "category_ar": "مطاعم",
    "description_ar": "مطاعم في الرياض",
    "lat": 24.8148748,
    "lng": 46.6347003,
    "neighborhood": "",
    "tags": [],
    "perfect_for": [],
    "price_level": "",
    "opening_hours": "",
    "phone": "",
    "website": "",
    "source": "openstreetmap"
  },
  {
    "name_ar": "سستوريا",
    "name_en": "سستوريا",
    "category": "restaurants",
    "category_ar": "مطاعم",
    "description_ar": "مطاعم في الرياض",
    "lat": 24.8149496,
    "lng": 46.6348677,
    "neighborhood": "",
    "tags": [],
    "perfect_for": [],
    "price_level": "",
    "opening_hours": "",
    "phone": "",
    "website": "",
    "source": "openstreetmap"
  },
  {
    "name_ar": "سمك",
    "name_en": "سمك",
    "category": "restaurants",
    "category_ar": "مطاعم",
    "description_ar": "مطاعم في الرياض",
    "lat": 24.8151713,
    "lng": 46.6353868,
    "neighborhood": "",
    "tags": [],
    "perfect_for": [],
    "price_level": "",
    "opening_hours": "",
    "phone": "",
    "website": "",
    "source": "openstreetmap"
  },
  {
    "name_ar": "ديب فرايز",
    "name_en": "ديب فرايز",
    "category": "restaurants",
    "category_ar": "مطاعم",
    "description_ar": "مطاعم في الرياض",
    "lat": 24.8151974,
    "lng": 46.6354608,
    "neighborhood": "",
    "tags": [],
    "perfect_for": [],
    "price_level": "",
    "opening_hours": "",
    "phone": "",
    "website": "",
    "source": "openstreetmap"
  },
  {
    "name_ar": "مكشكش",
    "name_en": "مكشكش",
    "category": "restaurants",
    "category_ar": "مطاعم",
    "description_ar": "مطاعم في الرياض",
    "lat": 24.8152251,
    "lng": 46.6355218,
    "neighborhood": "",
    "tags": [],
    "perfect_for": [],
    "price_level": "",
    "opening_hours": "",
    "phone": "",
    "website": "",
    "source": "openstreetmap"
  },
  {
    "name_ar": "فطيرة الشاورما",
    "name_en": "فطيرة الشاورما",
    "category": "restaurants",
    "category_ar": "مطاعم",
    "description_ar": "مطاعم في الرياض",
    "lat": 24.8153103,
    "lng": 46.6357187,
    "neighborhood": "",
    "tags": [],
    "perfect_for": [],
    "price_level": "",
    "opening_hours": "",
    "phone": "",
    "website": "",
    "source": "openstreetmap"
  },
  {
    "name_ar": "رول اند راب",
    "name_en": "رول اند راب",
    "category": "restaurants",
    "category_ar": "مطاعم",
    "description_ar": "مطاعم في الرياض",
    "lat": 24.8153639,
    "lng": 46.6358389,
    "neighborhood": "",
    "tags": [],
    "perfect_for": [],
    "price_level": "",
    "opening_hours": "",
    "phone": "",
    "website": "",
    "source": "openstreetmap"
  },
  {
    "name_ar": "الناضج",
    "name_en": "الناضج",
    "category": "restaurants",
    "category_ar": "مطاعم",
    "description_ar": "مطاعم في الرياض",
    "lat": 24.8156546,
    "lng": 46.6361308,
    "neighborhood": "",
    "tags": [],
    "perfect_for": [],
    "price_level": "",
    "opening_hours": "",
    "phone": "",
    "website": "",
    "source": "openstreetmap"
  },
  {
    "name_ar": "كوخ الكشري",
    "name_en": "كوخ الكشري",
    "category": "restaurants",
    "category_ar": "مطاعم",
    "description_ar": "مطاعم في الرياض",
    "lat": 24.8182046,
    "lng": 46.6421908,
    "neighborhood": "",
    "tags": [],
    "perfect_for": [],
    "price_level": "",
    "opening_hours": "",
    "phone": "",
    "website": "",
    "source": "openstreetmap"
  },
  {
    "name_ar": "شريمبلس",
    "name_en": "شريمبلس",
    "category": "restaurants",
    "category_ar": "مطاعم",
    "description_ar": "مطاعم في الرياض",
    "lat": 24.8182369,
    "lng": 46.6422566,
    "neighborhood": "",
    "tags": [],
    "perfect_for": [],
    "price_level": "",
    "opening_hours": "",
    "phone": "",
    "website": "",
    "source": "openstreetmap"
  },
  {
    "name_ar": "أكلات حجازية",
    "name_en": "أكلات حجازية",
    "category": "restaurants",
    "category_ar": "مطاعم",
    "description_ar": "مطاعم في الرياض",
    "lat": 24.8182656,
    "lng": 46.6423175,
    "neighborhood": "",
    "tags": [],
    "perfect_for": [],
    "price_level": "",
    "opening_hours": "",
    "phone": "",
    "website": "",
    "source": "openstreetmap"
  },
  {
    "name_ar": "مطعم زهرة الزحل",
    "name_en": "مطعم زهرة الزحل",
    "category": "restaurants",
    "category_ar": "مطاعم",
    "description_ar": "مطاعم في الرياض",
    "lat": 24.8183203,
    "lng": 46.6424477,
    "neighborhood": "",
    "tags": [],
    "perfect_for": [],
    "price_level": "",
    "opening_hours": "",
    "phone": "",
    "website": "",
    "source": "openstreetmap"
  },
  {
    "name_ar": "دونربير",
    "name_en": "دونربير",
    "category": "restaurants",
    "category_ar": "مطاعم",
    "description_ar": "مطاعم في الرياض",
    "lat": 24.8183863,
    "lng": 46.6426174,
    "neighborhood": "",
    "tags": [],
    "perfect_for": [],
    "price_level": "",
    "opening_hours": "",
    "phone": "",
    "website": "",
    "source": "openstreetmap"
  },
  {
    "name_ar": "فلافل ثمار",
    "name_en": "فلافل ثمار",
    "category": "restaurants",
    "category_ar": "مطاعم",
    "description_ar": "مطاعم في الرياض",
    "lat": 24.8184052,
    "lng": 46.6426694,
    "neighborhood": "",
    "tags": [],
    "perfect_for": [],
    "price_level": "",
    "opening_hours": "",
    "phone": "",
    "website": "",
    "source": "openstreetmap"
  },
  {
    "name_ar": "فوال النعمان",
    "name_en": "فوال النعمان",
    "category": "restaurants",
    "category_ar": "مطاعم",
    "description_ar": "مطاعم في الرياض",
    "lat": 24.8184228,
    "lng": 46.6427187,
    "neighborhood": "",
    "tags": [],
    "perfect_for": [],
    "price_level": "",
    "opening_hours": "",
    "phone": "",
    "website": "",
    "source": "openstreetmap"
  },
  {
    "name_ar": "مطعم ذوق مغل",
    "name_en": "مطعم ذوق مغل",
    "category": "restaurants",
    "category_ar": "مطاعم",
    "description_ar": "مطاعم في الرياض",
    "lat": 24.8185898,
    "lng": 46.6431326,
    "neighborhood": "",
    "tags": [],
    "perfect_for": [],
    "price_level": "",
    "opening_hours": "",
    "phone": "",
    "website": "",
    "source": "openstreetmap"
  },
  {
    "name_ar": "ميت لوفر",
    "name_en": "ميت لوفر",
    "category": "restaurants",
    "category_ar": "مطاعم",
    "description_ar": "مطاعم في الرياض",
    "lat": 24.8173115,
    "lng": 46.6440981,
    "neighborhood": "",
    "tags": [],
    "perfect_for": [],
    "price_level": "",
    "opening_hours": "",
    "phone": "",
    "website": "",
    "source": "openstreetmap"
  },
  {
    "name_ar": "مطعم القصر للمشويات العراقية",
    "name_en": "مطعم القصر للمشويات العراقية",
    "category": "restaurants",
    "category_ar": "مطاعم",
    "description_ar": "مطاعم في الرياض",
    "lat": 24.8171188,
    "lng": 46.6442025,
    "neighborhood": "",
    "tags": [],
    "perfect_for": [],
    "price_level": "",
    "opening_hours": "",
    "phone": "",
    "website": "",
    "source": "openstreetmap"
  },
  {
    "name_ar": "كوفليت",
    "name_en": "كوفليت",
    "category": "restaurants",
    "category_ar": "مطاعم",
    "description_ar": "مطاعم في الرياض",
    "lat": 24.8131505,
    "lng": 46.6460734,
    "neighborhood": "",
    "tags": [],
    "perfect_for": [],
    "price_level": "",
    "opening_hours": "",
    "phone": "",
    "website": "",
    "source": "openstreetmap"
  },
  {
    "name_ar": "سموكي هاوس",
    "name_en": "سموكي هاوس",
    "category": "restaurants",
    "category_ar": "مطاعم",
    "description_ar": "مطاعم في الرياض",
    "lat": 24.8130409,
    "lng": 46.6461297,
    "neighborhood": "",
    "tags": [],
    "perfect_for": [],
    "price_level": "",
    "opening_hours": "",
    "phone": "",
    "website": "",
    "source": "openstreetmap"
  },
  {
    "name_ar": "نورش",
    "name_en": "نورش",
    "category": "restaurants",
    "category_ar": "مطاعم",
    "description_ar": "مطاعم في الرياض",
    "lat": 24.8129345,
    "lng": 46.6461754,
    "neighborhood": "",
    "tags": [],
    "perfect_for": [],
    "price_level": "",
    "opening_hours": "",
    "phone": "",
    "website": "",
    "source": "openstreetmap"
  },
  {
    "name_ar": "باستليتا",
    "name_en": "باستليتا",
    "category": "restaurants",
    "category_ar": "مطاعم",
    "description_ar": "مطاعم في الرياض",
    "lat": 24.8119912,
    "lng": 46.6462956,
    "neighborhood": "",
    "tags": [],
    "perfect_for": [],
    "price_level": "",
    "opening_hours": "",
    "phone": "",
    "website": "",
    "source": "openstreetmap"
  },
  {
    "name_ar": "خبز ونواشف",
    "name_en": "خبز ونواشف",
    "category": "restaurants",
    "category_ar": "مطاعم",
    "description_ar": "مطاعم في الرياض",
    "lat": 24.8119102,
    "lng": 46.6460917,
    "neighborhood": "",
    "tags": [],
    "perfect_for": [],
    "price_level": "",
    "opening_hours": "",
    "phone": "",
    "website": "",
    "source": "openstreetmap"
  },
  {
    "name_ar": "الكيمي",
    "name_en": "الكيمي",
    "category": "restaurants",
    "category_ar": "مطاعم",
    "description_ar": "مطاعم في الرياض",
    "lat": 24.8027038,
    "lng": 46.6504113,
    "neighborhood": "",
    "tags": [],
    "perfect_for": [],
    "price_level": "",
    "opening_hours": "",
    "phone": "",
    "website": "",
    "source": "openstreetmap"
  },
  {
    "name_ar": "٦ صباحا",
    "name_en": "٦ صباحا",
    "category": "restaurants",
    "category_ar": "مطاعم",
    "description_ar": "مطاعم في الرياض",
    "lat": 24.8024327,
    "lng": 46.6497731,
    "neighborhood": "",
    "tags": [],
    "perfect_for": [],
    "price_level": "",
    "opening_hours": "",
    "phone": "",
    "website": "",
    "source": "openstreetmap"
  },
  {
    "name_ar": "مطعم لبنى",
    "name_en": "مطعم لبنى",
    "category": "restaurants",
    "category_ar": "مطاعم",
    "description_ar": "مطاعم في الرياض",
    "lat": 24.8024132,
    "lng": 46.6497227,
    "neighborhood": "",
    "tags": [],
    "perfect_for": [],
    "price_level": "",
    "opening_hours": "",
    "phone": "",
    "website": "",
    "source": "openstreetmap"
  },
  {
    "name_ar": "امبراطور الشاورما",
    "name_en": "امبراطور الشاورما",
    "category": "restaurants",
    "category_ar": "مطاعم",
    "description_ar": "مطاعم في الرياض",
    "lat": 24.8020207,
    "lng": 46.6491756,
    "neighborhood": "",
    "tags": [],
    "perfect_for": [],
    "price_level": "",
    "opening_hours": "",
    "phone": "",
    "website": "",
    "source": "openstreetmap"
  },
  {
    "name_ar": "لامي مطعم وكافيه",
    "name_en": "لامي مطعم وكافيه",
    "category": "restaurants",
    "category_ar": "مطاعم",
    "description_ar": "مطاعم في الرياض",
    "lat": 24.8006306,
    "lng": 46.6458716,
    "neighborhood": "",
    "tags": [],
    "perfect_for": [],
    "price_level": "",
    "opening_hours": "",
    "phone": "",
    "website": "",
    "source": "openstreetmap"
  },
  {
    "name_ar": "رغيف وجبنة",
    "name_en": "رغيف وجبنة",
    "category": "restaurants",
    "category_ar": "مطاعم",
    "description_ar": "مطاعم في الرياض",
    "lat": 24.7952936,
    "lng": 46.6350728,
    "neighborhood": "",
    "tags": [],
    "perfect_for": [],
    "price_level": "",
    "opening_hours": "",
    "phone": "",
    "website": "",
    "source": "openstreetmap"
  },
  {
    "name_ar": "هاك شاورما",
    "name_en": "هاك شاورما",
    "category": "restaurants",
    "category_ar": "مطاعم",
    "description_ar": "مطاعم في الرياض",
    "lat": 24.7953516,
    "lng": 46.6352325,
    "neighborhood": "",
    "tags": [],
    "perfect_for": [],
    "price_level": "",
    "opening_hours": "",
    "phone": "",
    "website": "",
    "source": "openstreetmap"
  },
  {
    "name_ar": "سلايدر هاوس",
    "name_en": "سلايدر هاوس",
    "category": "restaurants",
    "category_ar": "مطاعم",
    "description_ar": "مطاعم في الرياض",
    "lat": 24.7981738,
    "lng": 46.6420718,
    "neighborhood": "",
    "tags": [],
    "perfect_for": [],
    "price_level": "",
    "opening_hours": "",
    "phone": "",
    "website": "",
    "source": "openstreetmap"
  },
  {
    "name_ar": "الصاج الريفي",
    "name_en": "الصاج الريفي",
    "category": "restaurants",
    "category_ar": "مطاعم",
    "description_ar": "مطاعم في الرياض",
    "lat": 24.7976669,
    "lng": 46.6418438,
    "neighborhood": "",
    "tags": [],
    "perfect_for": [],
    "price_level": "",
    "opening_hours": "",
    "phone": "",
    "website": "",
    "source": "openstreetmap"
  },
  {
    "name_ar": "أبو جبارة",
    "name_en": "أبو جبارة",
    "category": "restaurants",
    "category_ar": "مطاعم",
    "description_ar": "مطاعم في الرياض",
    "lat": 24.7976486,
    "lng": 46.6413662,
    "neighborhood": "",
    "tags": [],
    "perfect_for": [],
    "price_level": "",
    "opening_hours": "",
    "phone": "",
    "website": "",
    "source": "openstreetmap"
  },
  {
    "name_ar": "سلطان أحمد",
    "name_en": "سلطان أحمد",
    "category": "restaurants",
    "category_ar": "مطاعم",
    "description_ar": "مطاعم في الرياض",
    "lat": 24.7993942,
    "lng": 46.6450457,
    "neighborhood": "",
    "tags": [],
    "perfect_for": [],
    "price_level": "",
    "opening_hours": "",
    "phone": "",
    "website": "",
    "source": "openstreetmap"
  },
  {
    "name_ar": "بي برجر",
    "name_en": "بي برجر",
    "category": "restaurants",
    "category_ar": "مطاعم",
    "description_ar": "مطاعم في الرياض",
    "lat": 24.8006544,
    "lng": 46.6482116,
    "neighborhood": "",
    "tags": [],
    "perfect_for": [],
    "price_level": "",
    "opening_hours": "",
    "phone": "",
    "website": "",
    "source": "openstreetmap"
  },
  {
    "name_ar": "هستل",
    "name_en": "هستل",
    "category": "restaurants",
    "category_ar": "مطاعم",
    "description_ar": "مطاعم في الرياض",
    "lat": 24.7931528,
    "lng": 46.6491205,
    "neighborhood": "",
    "tags": [],
    "perfect_for": [],
    "price_level": "",
    "opening_hours": "",
    "phone": "",
    "website": "",
    "source": "openstreetmap"
  },
  {
    "name_ar": "تشيلو",
    "name_en": "تشيلو",
    "category": "restaurants",
    "category_ar": "مطاعم",
    "description_ar": "مطاعم في الرياض",
    "lat": 24.792998,
    "lng": 46.6490511,
    "neighborhood": "",
    "tags": [],
    "perfect_for": [],
    "price_level": "",
    "opening_hours": "",
    "phone": "",
    "website": "",
    "source": "openstreetmap"
  },
  {
    "name_ar": "Artasty ارتيستي",
    "name_en": "Artasty ارتيستي",
    "category": "restaurants",
    "category_ar": "مطاعم",
    "description_ar": "مطاعم في الرياض",
    "lat": 24.7351915,
    "lng": 46.6476127,
    "neighborhood": "",
    "tags": [],
    "perfect_for": [],
    "price_level": "",
    "opening_hours": "",
    "phone": "",
    "website": "",
    "source": "openstreetmap"
  },
  {
    "name_ar": "Restaurant Garden",
    "name_en": "Restaurant Garden",
    "category": "restaurants",
    "category_ar": "مطاعم",
    "description_ar": "مطاعم في الرياض",
    "lat": 24.6842462,
    "lng": 46.7772773,
    "neighborhood": "",
    "tags": [],
    "perfect_for": [],
    "price_level": "",
    "opening_hours": "",
    "phone": "",
    "website": "",
    "source": "openstreetmap"
  },
  {
    "name_ar": "Falafel and Bean Restaurant",
    "name_en": "Falafel and Bean Restaurant",
    "category": "restaurants",
    "category_ar": "مطاعم",
    "description_ar": "مطاعم في الرياض",
    "lat": 24.5977661,
    "lng": 46.7335812,
    "neighborhood": "",
    "tags": [],
    "perfect_for": [],
    "price_level": "",
    "opening_hours": "",
    "phone": "",
    "website": "",
    "source": "openstreetmap"
  },
  {
    "name_ar": "Jamra",
    "name_en": "Jamra",
    "category": "restaurants",
    "category_ar": "مطاعم",
    "description_ar": "مطاعم في الرياض",
    "lat": 24.7088336,
    "lng": 46.7740685,
    "neighborhood": "",
    "tags": [],
    "perfect_for": [],
    "price_level": "",
    "opening_hours": "",
    "phone": "",
    "website": "",
    "source": "openstreetmap"
  },