[
  {
    "name_ar": "Prince Salman Science Oasis",
    "name_en": "Prince Salman Science Oasis",
    "category": "entertainment",
    "category_ar": "ترفيه",
    "description_ar": "ترفيه في الرياض",
    "lat": 24.6788131,
    "lng": 46.6311467,
    "neighborhood": "",
    "tags": [],
    "perfect_for": [],
    "price_level": "",
    "opening_hours": "",
    "phone": "",
    "website": "",
    "source": "openstreetmap"
  },
  {
    "name_ar": "قوة الرياضي",
    "name_en": "قوة الرياضي",
    "category": "entertainment",
    "category_ar": "ترفيه",
    "description_ar": "ترفيه في الرياض",
    "lat": 24.5677679,
    "lng": 46.8394232,
    "neighborhood": "",
    "tags": [],
    "perfect_for": [],
    "price_level": "",
    "opening_hours": "",
    "phone": "",
    "website": "",
    "source": "openstreetmap"
  },
  {
    "name_ar": "Sports Garden",
    "name_en": "Sports Garden",
    "category": "entertainment",
    "category_ar": "ترفيه",
    "description_ar": "ترفيه في الرياض",
    "lat": 24.9590496,
    "lng": 46.5770464,
    "neighborhood": "",
    "tags": [],
    "perfect_for": [],
    "price_level": "",
    "opening_hours": "",
    "phone": "",
    "website": "https://www.riyadhgolfcourses.com/sports_garden",
    "source": "openstreetmap"
  },
  {
    "name_ar": "Firstaiment",
    "name_en": "Firstaiment",
    "category": "entertainment",
    "category_ar": "ترفيه",
    "description_ar": "ترفيه في الرياض",
    "lat": 24.7711812,
    "lng": 46.604618,
    "neighborhood": "",
    "tags": [],
    "perfect_for": [],
    "price_level": "",
    "opening_hours": "",
    "phone": "",
    "website": "",
    "source": "openstreetmap"
  },
  {
    "name_ar": "Gymnasium",
    "name_en": "Gymnasium",
    "category": "entertainment",
    "category_ar": "ترفيه",
    "description_ar": "ترفيه في الرياض",
    "lat": 24.7286289,
    "lng": 46.6280364,
    "neighborhood": "",
    "tags": [],
    "perfect_for": [],
    "price_level": "",
    "opening_hours": "",
    "phone": "",
    "website": "",
    "source": "openstreetmap"
  },
  {
    "name_ar": "صالة رياضية",
    "name_en": "Indoor Sport Hall",
    "category": "entertainment",
    "category_ar": "ترفيه",
    "description_ar": "ترفيه في الرياض",
    "lat": 24.7271127,
    "lng": 46.6222248,
    "neighborhood": "",
    "tags": [],
    "perfect_for": [],
    "price_level": "",
    "opening_hours": "",
    "phone": "",
    "website": "",
    "source": "openstreetmap"
  },
  {
    "name_ar": "Swimming Pool",
    "name_en": "Swimming Pool",
    "category": "entertainment",
    "category_ar": "ترفيه",
    "description_ar": "ترفيه في الرياض",
    "lat": 24.7288684,
    "lng": 46.6267871,
    "neighborhood": "",
    "tags": [],
    "perfect_for": [],
    "price_level": "",
    "opening_hours": "",
    "phone": "",
    "website": "",
    "source": "openstreetmap"
  },
  {
    "name_ar": "Alhilal Sport Club",
    "name_en": "Alhilal Sport Club",
    "category": "entertainment",
    "category_ar": "ترفيه",
    "description_ar": "ترفيه في الرياض",
    "lat": 24.6058796,
    "lng": 46.6255373,
    "neighborhood": "",
    "tags": [],
    "perfect_for": [],
    "price_level": "",
    "opening_hours": "",
    "phone": "",
    "website": "",
    "source": "openstreetmap"
  },
  {
    "name_ar": "Al-Nasser Club",
    "name_en": "Al-Nasser Club",
    "category": "entertainment",
    "category_ar": "ترفيه",
    "description_ar": "ترفيه في الرياض",
    "lat": 24.5804805,
    "lng": 46.558699,
    "neighborhood": "",
    "tags": [],
    "perfect_for": [],
    "price_level": "",
    "opening_hours": "",
    "phone": "",
    "website": "",
    "source": "openstreetmap"
  },
  {
    "name_ar": "مركز الرجل القوي الرياضي",
    "name_en": "مركز الرجل القوي الرياضي",
    "category": "entertainment",
    "category_ar": "ترفيه",
    "description_ar": "ترفيه في الرياض",
    "lat": 24.5844234,
    "lng": 46.6431968,
    "neighborhood": "",
    "tags": [],
    "perfect_for": [],
    "price_level": "",
    "opening_hours": "",
    "phone": "",
    "website": "",
    "source": "openstreetmap"
  },
  {
    "name_ar": "النادي الرياضي لاعضاء هيئة التدريس الرجالي",
    "name_en": "النادي الرياضي لاعضاء هيئة التدريس الرجالي",
    "category": "entertainment",
    "category_ar": "ترفيه",
    "description_ar": "ترفيه في الرياض",
    "lat": 24.8579986,
    "lng": 46.7283736,
    "neighborhood": "",
    "tags": [],
    "perfect_for": [],
    "price_level": "",
    "opening_hours": "",
    "phone": "",
    "website": "",
    "source": "openstreetmap"
  },
  {
    "name_ar": "Banban Resort",
    "name_en": "Banban Resort",
    "category": "entertainment",
    "category_ar": "ترفيه",
    "description_ar": "ترفيه في الرياض",
    "lat": 25.0094924,
    "lng": 46.5689104,
    "neighborhood": "",
    "tags": [],
    "perfect_for": [],
    "price_level": "",
    "opening_hours": "",
    "phone": "",
    "website": "",
    "source": "openstreetmap"
  },
  {
    "name_ar": "Bowling Center",
    "name_en": "Bowling Center",
    "category": "entertainment",
    "category_ar": "ترفيه",
    "description_ar": "ترفيه في الرياض",
    "lat": 24.6488232,
    "lng": 46.6518644,
    "neighborhood": "",
    "tags": [],
    "perfect_for": [],
    "price_level": "",
    "opening_hours": "",
    "phone": "",
    "website": "",
    "source": "openstreetmap"
  },
  {
    "name_ar": "Badminton Square",
    "name_en": "Badminton Square",
    "category": "entertainment",
    "category_ar": "ترفيه",
    "description_ar": "ترفيه في الرياض",
    "lat": 24.6483286,
    "lng": 46.6521564,
    "neighborhood": "",
    "tags": [],
    "perfect_for": [],
    "price_level": "",
    "opening_hours": "",
    "phone": "",
    "website": "",
    "source": "openstreetmap"
  },
  {
    "name_ar": "Multipurpose Court",
    "name_en": "Multipurpose Court",
    "category": "entertainment",
    "category_ar": "ترفيه",
    "description_ar": "ترفيه في الرياض",
    "lat": 24.7550362,
    "lng": 46.8657755,
    "neighborhood": "",
    "tags": [],
    "perfect_for": [],
    "price_level": "",
    "opening_hours": "",
    "phone": "",
    "website": "",
    "source": "openstreetmap"
  },
  {
    "name_ar": "حلبة ديراب",
    "name_en": "حلبة ديراب",
    "category": "entertainment",
    "category_ar": "ترفيه",
    "description_ar": "ترفيه في الرياض",
    "lat": 24.4611416,
    "lng": 46.5808481,
    "neighborhood": "",
    "tags": [],
    "perfect_for": [],
    "price_level": "",
    "opening_hours": "",
    "phone": "",
    "website": "",
    "source": "openstreetmap"
  },
  {
    "name_ar": "Cricket Fields",
    "name_en": "Cricket Fields",
    "category": "entertainment",
    "category_ar": "ترفيه",
    "description_ar": "ترفيه في الرياض",
    "lat": 24.5278518,
    "lng": 46.9510286,
    "neighborhood": "",
    "tags": [],
    "perfect_for": [],
    "price_level": "",
    "opening_hours": "",
    "phone": "",
    "website": "",
    "source": "openstreetmap"
  },
  {
    "name_ar": "Prince Faisal Bin Fahd Olympic Complex",
    "name_en": "Prince Faisal Bin Fahd Olympic Complex",
    "category": "entertainment",
    "category_ar": "ترفيه",
    "description_ar": "ترفيه في الرياض",
    "lat": 24.6460031,
    "lng": 46.6494234,
    "neighborhood": "",
    "tags": [],
    "perfect_for": [],
    "price_level": "",
    "opening_hours": "",
    "phone": "",
    "website": "",
    "source": "openstreetmap"
  },
  {
    "name_ar": "نادي شركة المياه الوطنية",
    "name_en": "نادي شركة المياه الوطنية",
    "category": "entertainment",
    "category_ar": "ترفيه",
    "description_ar": "ترفيه في الرياض",
    "lat": 24.5898889,
    "lng": 46.702849,
    "neighborhood": "",
    "tags": [],
    "perfect_for": [],
    "price_level": "",
    "opening_hours": "",
    "phone": "",
    "website": "",
    "source": "openstreetmap"
  },
  {
    "name_ar": "متوسطة الإمام الطحاوي",
    "name_en": "متوسطة الإمام الطحاوي",
    "category": "entertainment",
    "category_ar": "ترفيه",
    "description_ar": "ترفيه في الرياض",
    "lat": 24.5781347,
    "lng": 46.5924938,
    "neighborhood": "",
    "tags": [],
    "perfect_for": [],
    "price_level": "",
    "opening_hours": "",
    "phone": "",
    "website": "",
    "source": "openstreetmap"
  },
  {
    "name_ar": "النادي الرياضي لاعضاء هيئة التدريس النسائي",
    "name_en": "النادي الرياضي لاعضاء هيئة التدريس النسائي",
    "category": "entertainment",
    "category_ar": "ترفيه",
    "description_ar": "ترفيه في الرياض",
    "lat": 24.8607375,
    "lng": 46.727942,
    "neighborhood": "",
    "tags": [],
    "perfect_for": [],
    "price_level": "",
    "opening_hours": "",
    "phone": "",
    "website": "",
    "source": "openstreetmap"
  },
  {
    "name_ar": "King Abdulaziz Equestrian Field",
    "name_en": "King Abdulaziz Equestrian Field",
    "category": "entertainment",
    "category_ar": "ترفيه",
    "description_ar": "ترفيه في الرياض",
    "lat": 24.9840973,
    "lng": 46.785933,
    "neighborhood": "",
    "tags": [],
    "perfect_for": [],
    "price_level": "",
    "opening_hours": "",
    "phone": "",
    "website": "",
    "source": "openstreetmap"
  },
  {
    "name_ar": "اشجار",
    "name_en": "اشجار",
    "category": "nature",
    "category_ar": "طبيعة",
    "description_ar": "طبيعة في الرياض",
    "lat": 24.5516022,
    "lng": 46.8890965,
    "neighborhood": "",
    "tags": [],
    "perfect_for": [],
    "price_level": "",
    "opening_hours": "",
    "phone": "",
    "website": "",
    "source": "openstreetmap"
  },
  {
    "name_ar": "KFC",
    "name_en": "KFC",
    "category": "restaurants",
    "category_ar": "مطاعم",
    "description_ar": "مطاعم في الرياض",
    "lat": 24.7118004,
    "lng": 46.6969673,
    "neighborhood": "",
    "tags": [],
    "perfect_for": [],
    "price_level": "",
    "opening_hours": "",
    "phone": "",
    "website": "",
    "source": "openstreetmap"
  },
  {
    "name_ar": "ماكدونالدز",
    "name_en": "McDonald's",
    "category": "restaurants",
    "category_ar": "مطاعم",
    "description_ar": "مطاعم في الرياض",
    "lat": 24.7132672,
    "lng": 46.6735034,
    "neighborhood": "",
    "tags": [],
    "perfect_for": [],
    "price_level": "",
    "opening_hours": "",
    "phone": "",
    "website": "",
    "source": "openstreetmap"
  },
  {
    "name_ar": "Kudu",
    "name_en": "Kudu",
    "category": "restaurants",
    "category_ar": "مطاعم",
    "description_ar": "مطاعم في الرياض",
    "lat": 24.6898413,
    "lng": 46.6864482,
    "neighborhood": "",
    "tags": [],
    "perfect_for": [],
    "price_level": "",
    "opening_hours": "",
    "phone": "",
    "website": "",
    "source": "openstreetmap"
  },
  {
    "name_ar": "Burger King",
    "name_en": "Burger King",
    "category": "restaurants",
    "category_ar": "مطاعم",
    "description_ar": "مطاعم في الرياض",
    "lat": 24.7373198,
    "lng": 46.7973512,
    "neighborhood": "",
    "tags": [],
    "perfect_for": [],
    "price_level": "",
    "opening_hours": "",
    "phone": "",
    "website": "",
    "source": "openstreetmap"
  },
  {
    "name_ar": "Pizza Hut",
    "name_en": "Pizza Hut",
    "category": "restaurants",
    "category_ar": "مطاعم",
    "description_ar": "مطاعم في الرياض",
    "lat": 24.7052277,
    "lng": 46.6854976,
    "neighborhood": "",
    "tags": [],
    "perfect_for": [],
    "price_level": "",
    "opening_hours": "Mo-Su 00:00-02:00,11:00-24:00",
    "phone": "",
    "website": "",
    "source": "openstreetmap"
  },
  {
    "name_ar": "Indonesian",
    "name_en": "Indonesian",
    "category": "restaurants",
    "category_ar": "مطاعم",
    "description_ar": "مطاعم في الرياض",
    "lat": 24.7098964,
    "lng": 46.6909907,
    "neighborhood": "",
    "tags": [],
    "perfect_for": [],
    "price_level": "",
    "opening_hours": "",
    "phone": "",
    "website": "",
    "source": "openstreetmap"
  },
  {
    "name_ar": "The Pizza Company",
    "name_en": "The Pizza Company",
    "category": "restaurants",
    "category_ar": "مطاعم",
    "description_ar": "مطاعم في الرياض",
    "lat": 24.7026567,
    "lng": 46.6799824,
    "neighborhood": "",
    "tags": [],
    "perfect_for": [],
    "price_level": "",
    "opening_hours": "",
    "phone": "",
    "website": "",
    "source": "openstreetmap"
  },
  {
    "name_ar": "Tahlia Cafe",
    "name_en": "Tahlia Cafe",
    "category": "restaurants",
    "category_ar": "مطاعم",
    "description_ar": "مطاعم في الرياض",
    "lat": 24.7025498,
    "lng": 46.6973556,
    "neighborhood": "",
    "tags": [],
    "perfect_for": [],
    "price_level": "",
    "opening_hours": "24/7",
    "phone": "+966580694203",
    "website": "",
    "source": "openstreetmap"
  },
  {
    "name_ar": "McDonald's",
    "name_en": "McDonald's",
    "category": "restaurants",
    "category_ar": "مطاعم",
    "description_ar": "مطاعم في الرياض",
    "lat": 24.68678,
    "lng": 46.733841,
    "neighborhood": "",
    "tags": [],
    "perfect_for": [],
    "price_level": "",
    "opening_hours": "",
    "phone": "",
    "website": "",
    "source": "openstreetmap"
  },
  {
    "name_ar": "د.كيف",
    "name_en": "dr-cafe",
    "category": "restaurants",
    "category_ar": "مطاعم",
    "description_ar": "مطاعم في الرياض",
    "lat": 24.6926207,
    "lng": 46.7324952,
    "neighborhood": "",
    "tags": [],
    "perfect_for": [],
    "price_level": "",
    "opening_hours": "",
    "phone": "",
    "website": "",
    "source": "openstreetmap"
  },
  {
    "name_ar": "Krispy Kreme",
    "name_en": "Krispy Kreme",
    "category": "restaurants",
    "category_ar": "مطاعم",
    "description_ar": "مطاعم في الرياض",
    "lat": 24.7676074,
    "lng": 46.759626,
    "neighborhood": "",
    "tags": [],
    "perfect_for": [],
    "price_level": "",
    "opening_hours": "",
    "phone": "",
    "website": "",
    "source": "openstreetmap"
  },
  {
    "name_ar": "Shanghai Express",
    "name_en": "Shanghai Express",
    "category": "restaurants",
    "category_ar": "مطاعم",
    "description_ar": "مطاعم في الرياض",
    "lat": 24.7121272,
    "lng": 46.6750938,
    "neighborhood": "",
    "tags": [],
    "perfect_for": [],
    "price_level": "",
    "opening_hours": "",
    "phone": "",
    "website": "",
    "source": "openstreetmap"
  },
  {
    "name_ar": "Forchetta Italian Grill",
    "name_en": "Forchetta Italian Grill",
    "category": "restaurants",
    "category_ar": "مطاعم",
    "description_ar": "مطاعم في الرياض",
    "lat": 24.724413,
    "lng": 46.778962,
    "neighborhood": "",
    "tags": [],
    "perfect_for": [],
    "price_level": "",
    "opening_hours": "",
    "phone": "",
    "website": "",
    "source": "openstreetmap"
  },
  {
    "name_ar": "Cinnabon",
    "name_en": "Cinnabon",
    "category": "restaurants",
    "category_ar": "مطاعم",
    "description_ar": "مطاعم في الرياض",
    "lat": 24.7375941,
    "lng": 46.7978042,
    "neighborhood": "",
    "tags": [],
    "perfect_for": [],
    "price_level": "",
    "opening_hours": "",
    "phone": "",
    "website": "",
    "source": "openstreetmap"
  },
  {
    "name_ar": "Domino's",
    "name_en": "Domino's",
    "category": "restaurants",
    "category_ar": "مطاعم",
    "description_ar": "مطاعم في الرياض",
    "lat": 24.6879164,
    "lng": 46.7246219,
    "neighborhood": "",
    "tags": [],
    "perfect_for": [],
    "price_level": "",
    "opening_hours": "",
    "phone": "",
    "website": "",
    "source": "openstreetmap"
  },
  {
    "name_ar": "Crown Plaza hotel Riyadh",
    "name_en": "Crown Plaza hotel Riyadh",
    "category": "restaurants",
    "category_ar": "مطاعم",
    "description_ar": "مطاعم في الرياض",
    "lat": 24.6897441,
    "lng": 46.7173539,
    "neighborhood": "",
    "tags": [],
    "perfect_for": [],
    "price_level": "",
    "opening_hours": "",
    "phone": "",
    "website": "",
    "source": "openstreetmap"
  },
  {
    "name_ar": "Quattro",
    "name_en": "Quattro",
    "category": "restaurants",
    "category_ar": "مطاعم",
    "description_ar": "مطاعم في الرياض",
    "lat": 24.7112433,
    "lng": 46.6732363,
    "neighborhood": "",
    "tags": [],
    "perfect_for": [],
    "price_level": "",
    "opening_hours": "",
    "phone": "",
    "website": "",
    "source": "openstreetmap"
  },
  {
    "name_ar": "ديري كوين",
    "name_en": "ديري كوين",
    "category": "restaurants",
    "category_ar": "مطاعم",
    "description_ar": "مطاعم في الرياض",
    "lat": 24.7007697,
    "lng": 46.6923201,
    "neighborhood": "",
    "tags": [],
    "perfect_for": [],
    "price_level": "",
    "opening_hours": "",
    "phone": "",
    "website": "",
    "source": "openstreetmap"
  },
  {
    "name_ar": "هرفي",
    "name_en": "Herfy",
    "category": "restaurants",
    "category_ar": "مطاعم",
    "description_ar": "مطاعم في الرياض",
    "lat": 24.6756062,
    "lng": 46.6751345,
    "neighborhood": "",
    "tags": [],
    "perfect_for": [],
    "price_level": "",
    "opening_hours": "",
    "phone": "",
    "website": "",
    "source": "openstreetmap"
  },
  {
    "name_ar": "Yamal Asham",
    "name_en": "Yamal Asham",
    "category": "restaurants",
    "category_ar": "مطاعم",
    "description_ar": "مطاعم في الرياض",
    "lat": 24.6894742,
    "lng": 46.700071,
    "neighborhood": "",
    "tags": [],
    "perfect_for": [],
    "price_level": "",
    "opening_hours": "",
    "phone": "",
    "website": "",
    "source": "openstreetmap"
  },
  {
    "name_ar": "Mama Noura",
    "name_en": "Mama Noura",
    "category": "restaurants",
    "category_ar": "مطاعم",
    "description_ar": "مطاعم في الرياض",
    "lat": 24.6915798,
    "lng": 46.7017661,
    "neighborhood": "",
    "tags": [],
    "perfect_for": [],
    "price_level": "",
    "opening_hours": "",
    "phone": "",
    "website": "",
    "source": "openstreetmap"
  },
  {
    "name_ar": "French Corner",
    "name_en": "French Corner",
    "category": "restaurants",
    "category_ar": "مطاعم",
    "description_ar": "مطاعم في الرياض",
    "lat": 24.6925351,
    "lng": 46.7019271,
    "neighborhood": "",
    "tags": [],
    "perfect_for": [],
    "price_level": "",
    "opening_hours": "",
    "phone": "",
    "website": "",
    "source": "openstreetmap"
  },
  {
    "name_ar": "Italian",
    "name_en": "Italian",
    "category": "restaurants",
    "category_ar": "مطاعم",
    "description_ar": "مطاعم في الرياض",
    "lat": 24.7707353,
    "lng": 46.6720081,
    "neighborhood": "",
    "tags": [],
    "perfect_for": [],
    "price_level": "",
    "opening_hours": "",
    "phone": "",
    "website": "",
    "source": "openstreetmap"
  },
  {
    "name_ar": "مطعم هرفي",
    "name_en": "مطعم هرفي",
    "category": "restaurants",
    "category_ar": "مطاعم",
    "description_ar": "مطاعم في الرياض",
    "lat": 24.7310396,
    "lng": 46.7625149,
    "neighborhood": "",
    "tags": [],
    "perfect_for": [],
    "price_level": "",
    "opening_hours": "",
    "phone": "",
    "website": "https://www.herfy.com/index.php?lang=ar",
    "source": "openstreetmap"
  },
  {
    "name_ar": "Subway",
    "name_en": "Subway",
    "category": "restaurants",
    "category_ar": "مطاعم",
    "description_ar": "مطاعم في الرياض",
    "lat": 24.6898109,
    "lng": 46.6866028,
    "neighborhood": "",
    "tags": [],
    "perfect_for": [],
    "price_level": "",
    "opening_hours": "",
    "phone": "",
    "website": "",
    "source": "openstreetmap"
  },
  {
    "name_ar": "Darbar Restaurant",
    "name_en": "Darbar Restaurant",
    "category": "restaurants",
    "category_ar": "مطاعم",
    "description_ar": "مطاعم في الرياض",
    "lat": 24.6833024,
    "lng": 46.6885331,
    "neighborhood": "",
    "tags": [],
    "perfect_for": [],
    "price_level": "",
    "opening_hours": "",
    "phone": "",
    "website": "",
    "source": "openstreetmap"
  },
  {
    "name_ar": "Lucky Cafe",
    "name_en": "Lucky Cafe",
    "category": "restaurants",
    "category_ar": "مطاعم",
    "description_ar": "مطاعم في الرياض",
    "lat": 24.6830044,
    "lng": 46.6892504,
    "neighborhood": "",
    "tags": [],
    "perfect_for": [],
    "price_level": "",
    "opening_hours": "",
    "phone": "",
    "website": "",
    "source": "openstreetmap"
  },
  {
    "name_ar": "Koushari Express",
    "name_en": "Koushari Express",
    "category": "restaurants",
    "category_ar": "مطاعم",
    "description_ar": "مطاعم في الرياض",
    "lat": 24.670807,
    "lng": 46.7303883,
    "neighborhood": "",
    "tags": [],
    "perfect_for": [],
    "price_level": "",
    "opening_hours": "",
    "phone": "",
    "website": "",
    "source": "openstreetmap"
  },
  {
    "name_ar": "Gad",
    "name_en": "Gad",
    "category": "restaurants",
    "category_ar": "مطاعم",
    "description_ar": "مطاعم في الرياض",
    "lat": 24.6708964,
    "lng": 46.7309483,
    "neighborhood": "",
    "tags": [],
    "perfect_for": [],
    "price_level": "",
    "opening_hours": "",
    "phone": "",
    "website": "",
    "source": "openstreetmap"
  },
  {
    "name_ar": "Shawaya house",
    "name_en": "Shawaya house",
    "category": "restaurants",
    "category_ar": "مطاعم",
    "description_ar": "مطاعم في الرياض",
    "lat": 24.6713485,
    "lng": 46.7333422,
    "neighborhood": "",
    "tags": [],
    "perfect_for": [],
    "price_level": "",
    "opening_hours": "",
    "phone": "",
    "website": "",
    "source": "openstreetmap"
  },
  {
    "name_ar": "Hashim",
    "name_en": "Hashim",
    "category": "restaurants",
    "category_ar": "مطاعم",
    "description_ar": "مطاعم في الرياض",
    "lat": 24.6676583,
    "lng": 46.7332618,
    "neighborhood": "",
    "tags": [],
    "perfect_for": [],
    "price_level": "",
    "opening_hours": "",
    "phone": "",
    "website": "",
    "source": "openstreetmap"
  },
  {
    "name_ar": "مطعم النقاء",
    "name_en": "Al Naqaa",
    "category": "restaurants",
    "category_ar": "مطاعم",
    "description_ar": "مطاعم في الرياض",
    "lat": 24.6673268,
    "lng": 46.7334763,
    "neighborhood": "",
    "tags": [],
    "perfect_for": [],
    "price_level": "",
    "opening_hours": "",
    "phone": "",
    "website": "",
    "source": "openstreetmap"
  },
  {
    "name_ar": "Ghawar",
    "name_en": "Ghawar",
    "category": "restaurants",
    "category_ar": "مطاعم",
    "description_ar": "مطاعم في الرياض",
    "lat": 24.6697399,
    "lng": 46.7315827,
    "neighborhood": "",
    "tags": [],
    "perfect_for": [],
    "price_level": "",
    "opening_hours": "",
    "phone": "",
    "website": "",
    "source": "openstreetmap"
  },
  {
    "name_ar": "Al Omda",
    "name_en": "Al Omda",
    "category": "restaurants",
    "category_ar": "مطاعم",
    "description_ar": "مطاعم في الرياض",
    "lat": 24.6704321,
    "lng": 46.7313627,
    "neighborhood": "",
    "tags": [],
    "perfect_for": [],
    "price_level": "",
    "opening_hours": "",
    "phone": "",
    "website": "",
    "source": "openstreetmap"
  },
  {
    "name_ar": "Pizza Jarir",
    "name_en": "Pizza Jarir",
    "category": "restaurants",
    "category_ar": "مطاعم",
    "description_ar": "مطاعم في الرياض",
    "lat": 24.6707095,
    "lng": 46.7297606,
    "neighborhood": "",
    "tags": [],
    "perfect_for": [],
    "price_level": "",
    "opening_hours": "",
    "phone": "",
    "website": "",
    "source": "openstreetmap"
  },
  {
    "name_ar": "Mama Mashael",
    "name_en": "Mama Mashael",
    "category": "restaurants",
    "category_ar": "مطاعم",
    "description_ar": "مطاعم في الرياض",
    "lat": 24.6706803,
    "lng": 46.7295246,
    "neighborhood": "",
    "tags": [],
    "perfect_for": [],
    "price_level": "",
    "opening_hours": "",
    "phone": "",
    "website": "",
    "source": "openstreetmap"
  },
  {
    "name_ar": "more than a cafe",
    "name_en": "more than a cafe",
    "category": "restaurants",
    "category_ar": "مطاعم",
    "description_ar": "مطاعم في الرياض",
    "lat": 24.7811556,
    "lng": 46.6617395,
    "neighborhood": "",
    "tags": [],
    "perfect_for": [],
    "price_level": "",
    "opening_hours": "",
    "phone": "+966 50 747 8472",
    "website": "http://morethanacafe.com.sa",
    "source": "openstreetmap"
  },
  {
    "name_ar": "جافا تايم",
    "name_en": "Java Time",
    "category": "restaurants",
    "category_ar": "مطاعم",
    "description_ar": "مطاعم في الرياض",
    "lat": 24.6828568,
    "lng": 46.69716,
    "neighborhood": "",
    "tags": [],
    "perfect_for": [],
    "price_level": "",
    "opening_hours": "",
    "phone": "",
    "website": "",
    "source": "openstreetmap"
  },
  {
    "name_ar": "جافا كفيه",
    "name_en": "جافا كفيه",
    "category": "restaurants",
    "category_ar": "مطاعم",
    "description_ar": "مطاعم في الرياض",
    "lat": 24.5842784,
    "lng": 46.6911104,
    "neighborhood": "",
    "tags": [],
    "perfect_for": [],
    "price_level": "",
    "opening_hours": "",
    "phone": "",
    "website": "",
    "source": "openstreetmap"
  },
  {
    "name_ar": "Baskin Robbins",
    "name_en": "Baskin Robbins",
    "category": "restaurants",
    "category_ar": "مطاعم",
    "description_ar": "مطاعم في الرياض",
    "lat": 24.7640166,
    "lng": 46.7142571,
    "neighborhood": "",
    "tags": [],
    "perfect_for": [],
    "price_level": "",
    "opening_hours": "",
    "phone": "",
    "website": "https://www.baskinrobbins.com/content/baskinrobbins/en.html",
    "source": "openstreetmap"
  },
  {
    "name_ar": "Najd Village",
    "name_en": "Najd Village",
    "category": "restaurants",
    "category_ar": "مطاعم",
    "description_ar": "مطاعم في الرياض",
    "lat": 24.742561,
    "lng": 46.7046388,
    "neighborhood": "",
    "tags": [],
    "perfect_for": [],
    "price_level": "",
    "opening_hours": "",
    "phone": "",
    "website": "",
    "source": "openstreetmap"
  },
  {
    "name_ar": "Shawaya House",
    "name_en": "Shawaya House",
    "category": "restaurants",
    "category_ar": "مطاعم",
    "description_ar": "مطاعم في الرياض",
    "lat": 24.7429454,
    "lng": 46.6724232,
    "neighborhood": "",
    "tags": [],
    "perfect_for": [],
    "price_level": "",
    "opening_hours": "",
    "phone": "",
    "website": "",
    "source": "openstreetmap"
  },
  {
    "name_ar": "Golden Saj",
    "name_en": "Golden Saj",
    "category": "restaurants",
    "category_ar": "مطاعم",
    "description_ar": "مطاعم في الرياض",
    "lat": 24.7396443,
    "lng": 46.6707885,
    "neighborhood": "",
    "tags": [],
    "perfect_for": [],
    "price_level": "",
    "opening_hours": "",
    "phone": "",
    "website": "",
    "source": "openstreetmap"
  },
  {
    "name_ar": "Al-Romansiah",
    "name_en": "Al-Romansiah",
    "category": "restaurants",
    "category_ar": "مطاعم",
    "description_ar": "مطاعم في الرياض",
    "lat": 24.6958274,
    "lng": 46.7923604,
    "neighborhood": "",
    "tags": [],
    "perfect_for": [],
    "price_level": "",
    "opening_hours": "",
    "phone": "920000144",
    "website": "",
    "source": "openstreetmap"
  },
  {
    "name_ar": "Fateera Hut",
    "name_en": "Fateera Hut",
    "category": "restaurants",
    "category_ar": "مطاعم",
    "description_ar": "مطاعم في الرياض",
    "lat": 24.6956985,
    "lng": 46.7921909,
    "neighborhood": "",
    "tags": [],
    "perfect_for": [],
    "price_level": "",
    "opening_hours": "",
    "phone": "",
    "website": "",
    "source": "openstreetmap"
  },
  {
    "name_ar": "Abdul Rahman Hallab & Sons 1881",
    "name_en": "Abdul Rahman Hallab & Sons 1881",
    "category": "restaurants",
    "category_ar": "مطاعم",
    "description_ar": "مطاعم في الرياض",
    "lat": 24.7088068,
    "lng": 46.7076196,
    "neighborhood": "",
    "tags": [],
    "perfect_for": [],
    "price_level": "",
    "opening_hours": "",
    "phone": "",
    "website": "",
    "source": "openstreetmap"
  },
  {
    "name_ar": "Tony Roma's",
    "name_en": "Tony Roma's",
    "category": "restaurants",
    "category_ar": "مطاعم",
    "description_ar": "مطاعم في الرياض",
    "lat": 24.7027286,
    "lng": 46.6801722,
    "neighborhood": "",
    "tags": [],
    "perfect_for": [],
    "price_level": "",
    "opening_hours": "",
    "phone": "",
    "website": "",
    "source": "openstreetmap"
  },
  {
    "name_ar": "Starbucks",
    "name_en": "Starbucks",
    "category": "restaurants",
    "category_ar": "مطاعم",
    "description_ar": "مطاعم في الرياض",
    "lat": 24.6734054,
    "lng": 46.6232542,
    "neighborhood": "",
    "tags": [],
    "perfect_for": [],
    "price_level": "",
    "opening_hours": "",
    "phone": "",
    "website": "",
    "source": "openstreetmap"
  },
  {
    "name_ar": "Dunkin' Donuts",
    "name_en": "Dunkin' Donuts",
    "category": "restaurants",
    "category_ar": "مطاعم",
    "description_ar": "مطاعم في الرياض",
    "lat": 24.6731463,
    "lng": 46.6231617,
    "neighborhood": "",
    "tags": [],
    "perfect_for": [],
    "price_level": "",
    "opening_hours": "",
    "phone": "",
    "website": "",
    "source": "openstreetmap"
  },
  {
    "name_ar": "عمو حمزة",
    "name_en": "عمو حمزة",
    "category": "restaurants",
    "category_ar": "مطاعم",
    "description_ar": "مطاعم في الرياض",
    "lat": 24.6518995,
    "lng": 46.7083525,
    "neighborhood": "",
    "tags": [],
    "perfect_for": [],
    "price_level": "",
    "opening_hours": "",
    "phone": "",
    "website": "",
    "source": "openstreetmap"
  },
  {
    "name_ar": "Elixir Bunn Coffee Roasters",
    "name_en": "Elixir Bunn Coffee Roasters",
    "category": "restaurants",
    "category_ar": "مطاعم",
    "description_ar": "مطاعم في الرياض",
    "lat": 24.7343299,
    "lng": 46.6112465,
    "neighborhood": "",
    "tags": [],
    "perfect_for": [],
    "price_level": "",
    "opening_hours": "21:00-01:00",
    "phone": "+966 57 090 8181",
    "website": "https://elixirbunn.com/",
    "source": "openstreetmap"
  },
  {
    "name_ar": "Steak Escape",
    "name_en": "Steak Escape",
    "category": "restaurants",
    "category_ar": "مطاعم",
    "description_ar": "مطاعم في الرياض",
    "lat": 24.7781,
    "lng": 46.7113951,
    "neighborhood": "",
    "tags": [],
    "perfect_for": [],
    "price_level": "",
    "opening_hours": "",
    "phone": "",
    "website": "",
    "source": "openstreetmap"
  },
  {
    "name_ar": "ماكدونالز",
    "name_en": "ماكدونالز",
    "category": "restaurants",
    "category_ar": "مطاعم",
    "description_ar": "مطاعم في الرياض",
    "lat": 24.811728,
    "lng": 46.7691345,
    "neighborhood": "",
    "tags": [],
    "perfect_for": [],
    "price_level": "",
    "opening_hours": "",
    "phone": "",
    "website": "",
    "source": "openstreetmap"
  },
  {
    "name_ar": "Herfy",
    "name_en": "Herfy",
    "category": "restaurants",
    "category_ar": "مطاعم",
    "description_ar": "مطاعم في الرياض",
    "lat": 24.7115383,
    "lng": 46.6753243,
    "neighborhood": "",
    "tags": [],
    "perfect_for": [],
    "price_level": "",
    "opening_hours": "",
    "phone": "",
    "website": "",
    "source": "openstreetmap"
  },
  {
    "name_ar": "كودو",
    "name_en": "Kudu",
    "category": "restaurants",
    "category_ar": "مطاعم",
    "description_ar": "مطاعم في الرياض",
    "lat": 24.6283083,
    "lng": 46.5596714,
    "neighborhood": "",
    "tags": [],
    "perfect_for": [],
    "price_level": "",
    "opening_hours": "",
    "phone": "",
    "website": "",
    "source": "openstreetmap"
  },
  {
    "name_ar": "Mthaq alromansi",
    "name_en": "Mthaq alromansi",
    "category": "restaurants",
    "category_ar": "مطاعم",
    "description_ar": "مطاعم في الرياض",
    "lat": 24.6197718,
    "lng": 46.7447373,
    "neighborhood": "",
    "tags": [],
    "perfect_for": [],
    "price_level": "",
    "opening_hours": "",
    "phone": "",
    "website": "",
    "source": "openstreetmap"
  },
  {
    "name_ar": "دجاج كنتاكي",
    "name_en": "KFC",
    "category": "restaurants",
    "category_ar": "مطاعم",
    "description_ar": "مطاعم في الرياض",
    "lat": 24.7047828,
    "lng": 46.6645614,
    "neighborhood": "",
    "tags": [],
    "perfect_for": [],
    "price_level": "",
    "opening_hours": "",
    "phone": "920021111",
    "website": "",
    "source": "openstreetmap"
  },
  {
    "name_ar": "بيتزا وفطائر شامية",
    "name_en": "بيتزا وفطائر شامية",
    "category": "restaurants",
    "category_ar": "مطاعم",
    "description_ar": "مطاعم في الرياض",
    "lat": 24.6479955,
    "lng": 46.7066944,
    "neighborhood": "",
    "tags": [],
    "perfect_for": [],
    "price_level": "",
    "opening_hours": "",
    "phone": "",
    "website": "",
    "source": "openstreetmap"
  },
  {
    "name_ar": "مايسترو",
    "name_en": "مايسترو",
    "category": "restaurants",
    "category_ar": "مطاعم",
    "description_ar": "مطاعم في الرياض",
    "lat": 24.6611514,
    "lng": 46.7011863,
    "neighborhood": "",
    "tags": [],
    "perfect_for": [],
    "price_level": "",
    "opening_hours": "",
    "phone": "",
    "website": "",
    "source": "openstreetmap"
  },
  {
    "name_ar": "مطعم الرومانسيه",
    "name_en": "مطعم الرومانسيه",
    "category": "restaurants",
    "category_ar": "مطاعم",
    "description_ar": "مطاعم في الرياض",
    "lat": 24.5747347,
    "lng": 46.6077444,
    "neighborhood": "",
    "tags": [],
    "perfect_for": [],
    "price_level": "",
    "opening_hours": "",
    "phone": "",
    "website": "",
    "source": "openstreetmap"
  },
  {
    "name_ar": "الوسام",
    "name_en": "الوسام",
    "category": "restaurants",
    "category_ar": "مطاعم",
    "description_ar": "مطاعم في الرياض",
    "lat": 24.6807883,
    "lng": 46.7005638,
    "neighborhood": "",
    "tags": [],
    "perfect_for": [],
    "price_level": "",
    "opening_hours": "",
    "phone": "",
    "website": "",
    "source": "openstreetmap"
  },
  {
    "name_ar": "بيتزا ان",
    "name_en": "بيتزا ان",
    "category": "restaurants",
    "category_ar": "مطاعم",
    "description_ar": "مطاعم في الرياض",
    "lat": 24.58378,
    "lng": 46.687974,
    "neighborhood": "",
    "tags": [],
    "perfect_for": [],
    "price_level": "",
    "opening_hours": "",
    "phone": "",
    "website": "",
    "source": "openstreetmap"
  },
  {
    "name_ar": "كنتاكي",
    "name_en": "كنتاكي",
    "category": "restaurants",
    "category_ar": "مطاعم",
    "description_ar": "مطاعم في الرياض",
    "lat": 24.6178334,
    "lng": 46.7531366,
    "neighborhood": "",
    "tags": [],
    "perfect_for": [],
    "price_level": "",
    "opening_hours": "",
    "phone": "",
    "website": "",
    "source": "openstreetmap"
  },
  {
    "name_ar": "Applebee's",
    "name_en": "Applebee's",
    "category": "restaurants",
    "category_ar": "مطاعم",
    "description_ar": "مطاعم في الرياض",
    "lat": 24.658699,
    "lng": 46.7839466,
    "neighborhood": "",
    "tags": [],
    "perfect_for": [],
    "price_level": "",
    "opening_hours": "",
    "phone": "",
    "website": "",
    "source": "openstreetmap"
  },
  {
    "name_ar": "Smashburger-Hittin",
    "name_en": "Smashburger-Hittin",
    "category": "restaurants",
    "category_ar": "مطاعم",
    "description_ar": "مطاعم في الرياض",
    "lat": 24.753668,
    "lng": 46.5843261,
    "neighborhood": "",
    "tags": [],
    "perfect_for": [],
    "price_level": "",
    "opening_hours": "",
    "phone": "",
    "website": "",
    "source": "openstreetmap"
  },
  {
    "name_ar": "دانكن دونتس",
    "name_en": "Dunkin' Donuts",
    "category": "restaurants",
    "category_ar": "مطاعم",
    "description_ar": "مطاعم في الرياض",
    "lat": 24.6898161,
    "lng": 46.7331563,
    "neighborhood": "",
    "tags": [],
    "perfect_for": [],
    "price_level": "",
    "opening_hours": "",
    "phone": "",
    "website": "",
    "source": "openstreetmap"
  },
  {
    "name_ar": "Bombay Hotel",
    "name_en": "Bombay Hotel",
    "category": "restaurants",
    "category_ar": "مطاعم",
    "description_ar": "مطاعم في الرياض",
    "lat": 24.6784326,
    "lng": 46.7434388,
    "neighborhood": "",
    "tags": [],
    "perfect_for": [],
    "price_level": "",
    "opening_hours": "06:00-23:00",
    "phone": "",
    "website": "",
    "source": "openstreetmap"
  },
  {
    "name_ar": "Express Arabic & Persian Restaurant",
    "name_en": "Express Arabic & Persian Restaurant",
    "category": "restaurants",
    "category_ar": "مطاعم",
    "description_ar": "مطاعم في الرياض",
    "lat": 24.678041,
    "lng": 46.7435589,
    "neighborhood": "",
    "tags": [],
    "perfect_for": [],
    "price_level": "",
    "opening_hours": "",
    "phone": "",
    "website": "",
    "source": "openstreetmap"
  },
  {
    "name_ar": "فلفلة",
    "name_en": "FilFila",
    "category": "restaurants",
    "category_ar": "مطاعم",
    "description_ar": "مطاعم في الرياض",
    "lat": 24.7403049,
    "lng": 46.7793296,
    "neighborhood": "",
    "tags": [],
    "perfect_for": [],
    "price_level": "",
    "opening_hours": "Mo-Su 05:00-23:55",
    "phone": "+966112377711",
    "website": "http://www.filfila.sa",
    "source": "openstreetmap"
  },
  {
    "name_ar": "مطعم بيتزا روما",
    "name_en": "pizza roma restaurant",
    "category": "restaurants",
    "category_ar": "مطاعم",
    "description_ar": "مطاعم في الرياض",
    "lat": 24.7006387,
    "lng": 46.6922802,
    "neighborhood": "",
    "tags": [],
    "perfect_for": [],
    "price_level": "",
    "opening_hours": "",
    "phone": "",
    "website": "",
    "source": "openstreetmap"
  },
  {
    "name_ar": "Brew Cafe",
    "name_en": "Brew Cafe",
    "category": "restaurants",
    "category_ar": "مطاعم",
    "description_ar": "مطاعم في الرياض",
    "lat": 24.6856565,
    "lng": 46.6249101,
    "neighborhood": "",
    "tags": [],
    "perfect_for": [],
    "price_level": "",
    "opening_hours": "",
    "phone": "",
    "website": "",
    "source": "openstreetmap"
  },
  {
    "name_ar": "مطعم الرومانسية",
    "name_en": "مطعم الرومانسية",
    "category": "restaurants",
    "category_ar": "مطاعم",
    "description_ar": "مطاعم في الرياض",
    "lat": 24.5710246,
    "lng": 46.6675235,
    "neighborhood": "",
    "tags": [],
    "perfect_for": [],
    "price_level": "",
    "opening_hours": "Mo-Su 10:00-00:00",
    "phone": "",
    "website": "",
    "source": "openstreetmap"
  },
  {
    "name_ar": "مطعم كرم العرب",
    "name_en": "مطعم كرم العرب",
    "category": "restaurants",
    "category_ar": "مطاعم",
    "description_ar": "مطاعم في الرياض",
    "lat": 24.6135832,
    "lng": 46.7336857,
    "neighborhood": "",
    "tags": [],
    "perfect_for": [],
    "price_level": "",
    "opening_hours": "",
    "phone": "",
    "website": "",
    "source": "openstreetmap"
  },
  {
    "name_ar": "بيتزا هت",
    "name_en": "Pizza hut",
    "category": "restaurants",
    "category_ar": "مطاعم",
    "description_ar": "مطاعم في الرياض",
    "lat": 24.7394822,
    "lng": 46.7598587,
    "neighborhood": "",
    "tags": [],
    "perfect_for": [],
    "price_level": "",
    "opening_hours": "",
    "phone": "",
    "website": "",
    "source": "openstreetmap"
  },
  {
    "name_ar": "Riyadh Chinese Restaurant",
    "name_en": "Riyadh Chinese Restaurant",
    "category": "restaurants",
    "category_ar": "مطاعم",
    "description_ar": "مطاعم في الرياض",
    "lat": 24.7115405,
    "lng": 46.697097,
    "neighborhood": "",
    "tags": [],
    "perfect_for": [],
    "price_level": "",
    "opening_hours": "",
    "phone": "",
    "website": "",
    "source": "openstreetmap"
  },
  {
    "name_ar": "جست تشل",
    "name_en": "Just chill",
    "category": "restaurants",
    "category_ar": "مطاعم",
    "description_ar": "مطاعم في الرياض",
    "lat": 24.7614566,
    "lng": 46.6739618,
    "neighborhood": "",
    "tags": [],
    "perfect_for": [],
    "price_level": "",
    "opening_hours": "",
    "phone": "",
    "website": "",
    "source": "openstreetmap"
  },
  {
    "name_ar": "Shikara Restaurant",
    "name_en": "",
    "category": "restaurants",
    "category_ar": "مطاعم",
    "description_ar": "مطاعم في الرياض",
    "lat": 24.7128171,
    "lng": 46.6711407,
    "neighborhood": "",
    "tags": [],
    "perfect_for": [],
    "price_level": "",
    "opening_hours": "Mo-Su 00:30-23:00",
    "phone": "+966112305333",
    "website": "",
    "source": "openstreetmap"
  },
  {
    "name_ar": "Tea Park for bubble tea",
    "name_en": "Tea Park for bubble tea",
    "category": "restaurants",
    "category_ar": "مطاعم",
    "description_ar": "مطاعم في الرياض",
    "lat": 24.6948127,
    "lng": 46.7027024,
    "neighborhood": "",
    "tags": [],
    "perfect_for": [],
    "price_level": "",
    "opening_hours": "12:30-00:30",
    "phone": "",
    "website": "",
    "source": "openstreetmap"
  },
  {
    "name_ar": "La Piazza",
    "name_en": "La Piazza",
    "category": "restaurants",
    "category_ar": "مطاعم",
    "description_ar": "مطاعم في الرياض",
    "lat": 24.7273506,
    "lng": 46.6651178,
    "neighborhood": "",
    "tags": [],
    "perfect_for": [],
    "price_level": "",
    "opening_hours": "Sa-Th 16:00-24:00; Fr 15:00-23:30",
    "phone": "+966114543300",
    "website": "",
    "source": "openstreetmap"
  },
  {
    "name_ar": "Al Bustan",
    "name_en": "Al Bustan",
    "category": "restaurants",
    "category_ar": "مطاعم",
    "description_ar": "مطاعم في الرياض",
    "lat": 24.7273506,
    "lng": 46.6650473,
    "neighborhood": "",
    "tags": [],
    "perfect_for": [],
    "price_level": "",
    "opening_hours": "Su-Th 06:30-10:00, Fr-Sa 06:30-10:30, Su-Th 12:00-15:00, Fr 12:30-15:30, Sa 13:00-16:00, Su-Fr 19:00-23:00",
    "phone": "",
    "website": "",
    "source": "openstreetmap"
  },
  {
    "name_ar": "أقوس",
    "name_en": "Agus",
    "category": "restaurants",
    "category_ar": "مطاعم",
    "description_ar": "مطاعم في الرياض",
    "lat": 24.7039122,
    "lng": 46.7024194,
    "neighborhood": "",
    "tags": [],
    "perfect_for": [],
    "price_level": "",
    "opening_hours": "",
    "phone": "",
    "website": "",
    "source": "openstreetmap"
  },
  {
    "name_ar": "Burger Fuel",
    "name_en": "Burger Fuel",
    "category": "restaurants",
    "category_ar": "مطاعم",
    "description_ar": "مطاعم في الرياض",
    "lat": 24.8071309,
    "lng": 46.6925067,
    "neighborhood": "",
    "tags": [],
    "perfect_for": [],
    "price_level": "",
    "opening_hours": "",
    "phone": "",
    "website": "",
    "source": "openstreetmap"
  },
  {
    "name_ar": "ستاربكس",
    "name_en": "Starbucks",
    "category": "restaurants",
    "category_ar": "مطاعم",
    "description_ar": "مطاعم في الرياض",
    "lat": 24.8056365,
    "lng": 46.6931658,
    "neighborhood": "",
    "tags": [],
    "perfect_for": [],
    "price_level": "",
    "opening_hours": "",
    "phone": "",
    "website": "",
    "source": "openstreetmap"
  },
  {
    "name_ar": "jolt coffe",
    "name_en": "jolt coffe",
    "category": "restaurants",
    "category_ar": "مطاعم",
    "description_ar": "مطاعم في الرياض",
    "lat": 24.7240862,
    "lng": 46.6454565,
    "neighborhood": "",
    "tags": [],
    "perfect_for": [],
    "price_level": "",
    "opening_hours": "24/7",
    "phone": "",
    "website": "",
    "source": "openstreetmap"
  },
  {
    "name_ar": "OULU Lounge",
    "name_en": "OULU Lounge",
    "category": "restaurants",
    "category_ar": "مطاعم",
    "description_ar": "مطاعم في الرياض",
    "lat": 24.7104405,
    "lng": 46.6631414,
    "neighborhood": "",
    "tags": [],
    "perfect_for": [],
    "price_level": "",
    "opening_hours": "",
    "phone": "",
    "website": "",
    "source": "openstreetmap"
  },
  {
    "name_ar": "Cafe du Jardin",
    "name_en": "Cafe du Jardin",
    "category": "restaurants",
    "category_ar": "مطاعم",
    "description_ar": "مطاعم في الرياض",
    "lat": 24.802743,
    "lng": 46.7165124,
    "neighborhood": "",
    "tags": [],
    "perfect_for": [],
    "price_level": "",
    "opening_hours": "",
    "phone": "",
    "website": "",
    "source": "openstreetmap"
  },
  {
    "name_ar": "Maestro Pizza",
    "name_en": "Maestro Pizza",
    "category": "restaurants",
    "category_ar": "مطاعم",
    "description_ar": "مطاعم في الرياض",
    "lat": 24.6742966,
    "lng": 46.6682167,
    "neighborhood": "",
    "tags": [],
    "perfect_for": [],
    "price_level": "",
    "opening_hours": "",
    "phone": "",
    "website": "",
    "source": "openstreetmap"
  },
  {
    "name_ar": "مطعم انار كلي",
    "name_en": "مطعم انار كلي",
    "category": "restaurants",
    "category_ar": "مطاعم",
    "description_ar": "مطاعم في الرياض",
    "lat": 24.579005,
    "lng": 46.8186497,
    "neighborhood": "",
    "tags": [],
    "perfect_for": [],
    "price_level": "",
    "opening_hours": "",
    "phone": "",
    "website": "",
    "source": "openstreetmap"
  },
  {
    "name_ar": "Domino's Pizza",
    "name_en": "Domino's Pizza",
    "category": "restaurants",
    "category_ar": "مطاعم",
    "description_ar": "مطاعم في الرياض",
    "lat": 24.7797836,
    "lng": 46.7877687,
    "neighborhood": "",
    "tags": [],
    "perfect_for": [],
    "price_level": "",
    "opening_hours": "Sa-Th 10:30-02:00, Fr 12:00-02:00",
    "phone": "920012345",
    "website": "https://www.dominos.sa/",
    "source": "openstreetmap"
  },
  {
    "name_ar": "البيك",
    "name_en": "Albaik",
    "category": "restaurants",
    "category_ar": "مطاعم",
    "description_ar": "مطاعم في الرياض",
    "lat": 24.6328516,
    "lng": 46.5652681,
    "neighborhood": "",
    "tags": [],
    "perfect_for": [],
    "price_level": "",
    "opening_hours": "",
    "phone": "",
    "website": "",
    "source": "openstreetmap"
  },
  {
    "name_ar": "بيت الشاورما",
    "name_en": "بيت الشاورما",
    "category": "restaurants",
    "category_ar": "مطاعم",
    "description_ar": "مطاعم في الرياض",
    "lat": 24.5740796,
    "lng": 46.6086127,
    "neighborhood": "",
    "tags": [],
    "perfect_for": [],
    "price_level": "",
    "opening_hours": "",
    "phone": "",
    "website": "",
    "source": "openstreetmap"
  },
  {
    "name_ar": "مندي الرياض",
    "name_en": "مندي الرياض",
    "category": "restaurants",
    "category_ar": "مطاعم",
    "description_ar": "مطاعم في الرياض",
    "lat": 24.8124136,
    "lng": 46.6263538,
    "neighborhood": "",
    "tags": [],
    "perfect_for": [],
    "price_level": "",
    "opening_hours": "Mo-Su 06:00-01:00",
    "phone": "+966 9200 02149",
    "website": "https://restaurant-46764.business.site/",
    "source": "openstreetmap"
  },
  {
    "name_ar": "Dunkin'",
    "name_en": "Dunkin'",
    "category": "restaurants",
    "category_ar": "مطاعم",
    "description_ar": "مطاعم في الرياض",
    "lat": 24.6761977,
    "lng": 46.6754344,
    "neighborhood": "",
    "tags": [],
    "perfect_for": [],
    "price_level": "",
    "opening_hours": "",
    "phone": "",
    "website": "",
    "source": "openstreetmap"
  },
  {
    "name_ar": "دانكن دوناتس",
    "name_en": "Dunkin' Donuts",
    "category": "restaurants",
    "category_ar": "مطاعم",
    "description_ar": "مطاعم في الرياض",
    "lat": 24.6823704,
    "lng": 46.7874547,
    "neighborhood": "",
    "tags": [],
    "perfect_for": [],
    "price_level": "",
    "opening_hours": "",
    "phone": "",
    "website": "",
    "source": "openstreetmap"
  },
  {
    "name_ar": "THOUB Coffee",
    "name_en": "THOUB Coffee",
    "category": "restaurants",
    "category_ar": "مطاعم",
    "description_ar": "مطاعم في الرياض",
    "lat": 24.6884422,
    "lng": 46.7788202,
    "neighborhood": "",
    "tags": [],
    "perfect_for": [],
    "price_level": "",
    "opening_hours": "",
    "phone": "",
    "website": "",
    "source": "openstreetmap"
  },
  {
    "name_ar": "Oplaisir",
    "name_en": "Oplaisir",
    "category": "restaurants",
    "category_ar": "مطاعم",
    "description_ar": "مطاعم في الرياض",
    "lat": 24.739431,
    "lng": 46.6463767,
    "neighborhood": "",
    "tags": [],
    "perfect_for": [],
    "price_level": "",
    "opening_hours": "",
    "phone": "",
    "website": "",
    "source": "openstreetmap"
  },
  {
    "name_ar": "Em Sherif Cafe",
    "name_en": "Em Sherif Cafe",
    "category": "restaurants",
    "category_ar": "مطاعم",
    "description_ar": "مطاعم في الرياض",
    "lat": 24.7313364,
    "lng": 46.6494167,
    "neighborhood": "",
    "tags": [],
    "perfect_for": [],
    "price_level": "",
    "opening_hours": "",
    "phone": "",
    "website": "",
    "source": "openstreetmap"
  },
  {
    "name_ar": "Coffe Day",
    "name_en": "Coffe Day",
    "category": "restaurants",
    "category_ar": "مطاعم",
    "description_ar": "مطاعم في الرياض",
    "lat": 24.7341694,
    "lng": 46.6973022,
    "neighborhood": "",
    "tags": [],
    "perfect_for": [],
    "price_level": "",
    "opening_hours": "",
    "phone": "",
    "website": "",
    "source": "openstreetmap"
  },
  {
    "name_ar": "Nano Kitchen",
    "name_en": "Nano Kitchen",
    "category": "restaurants",
    "category_ar": "مطاعم",
    "description_ar": "مطاعم في الرياض",
    "lat": 24.7340037,
    "lng": 46.6974471,
    "neighborhood": "",
    "tags": [],
    "perfect_for": [],
    "price_level": "",
    "opening_hours": "",
    "phone": "",
    "website": "",
    "source": "openstreetmap"
  },
  {
    "name_ar": "Wild Zaatar",
    "name_en": "Wild Zaatar",
    "category": "restaurants",
    "category_ar": "مطاعم",
    "description_ar": "مطاعم في الرياض",
    "lat": 24.8040635,
    "lng": 46.6941242,
    "neighborhood": "",
    "tags": [],
    "perfect_for": [],
    "price_level": "",
    "opening_hours": "",
    "phone": "059 988 0704",
    "website": "",
    "source": "openstreetmap"
  },
  {
    "name_ar": "Najd village",
    "name_en": "Najd village",
    "category": "restaurants",
    "category_ar": "مطاعم",
    "description_ar": "مطاعم في الرياض",
    "lat": 24.6912083,
    "lng": 46.6725928,
    "neighborhood": "",
    "tags": [],
    "perfect_for": [],
    "price_level": "",
    "opening_hours": "",
    "phone": "",
    "website": "",
    "source": "openstreetmap"
  },
  {
    "name_ar": "EAT ME BURGER",
    "name_en": "EAT ME BURGER",
    "category": "restaurants",
    "category_ar": "مطاعم",
    "description_ar": "مطاعم في الرياض",
    "lat": 24.7777428,
    "lng": 46.7071663,
    "neighborhood": "",
    "tags": [],
    "perfect_for": [],
    "price_level": "",
    "opening_hours": "",
    "phone": "",
    "website": "",
    "source": "openstreetmap"
  },
  {
    "name_ar": "Brew 92",
    "name_en": "Brew 92",
    "category": "restaurants",
    "category_ar": "مطاعم",
    "description_ar": "مطاعم في الرياض",
    "lat": 24.8168984,
    "lng": 46.6876881,
    "neighborhood": "",
    "tags": [],
    "perfect_for": [],
    "price_level": "",
    "opening_hours": "",
    "phone": "",
    "website": "",
    "source": "openstreetmap"
  },
  {
    "name_ar": "Eggsactly",
    "name_en": "Eggsactly",
    "category": "restaurants",
    "category_ar": "مطاعم",
    "description_ar": "مطاعم في الرياض",
    "lat": 24.8171078,
    "lng": 46.6875647,
    "neighborhood": "",
    "tags": [],
    "perfect_for": [],
    "price_level": "",
    "opening_hours": "6:00-15:00",
    "phone": "",
    "website": "https://www.instagram.com/eggsactly.sa/",
    "source": "openstreetmap"
  },
  {
    "name_ar": "Tiny Bird cafe تايني بيرد كافيه",
    "name_en": "Tiny Bird cafe تايني بيرد كافيه",
    "category": "restaurants",
    "category_ar": "مطاعم",
    "description_ar": "مطاعم في الرياض",
    "lat": 24.8618579,
    "lng": 46.6338657,
    "neighborhood": "",
    "tags": [],
    "perfect_for": [],
    "price_level": "",
    "opening_hours": "Mo-Su 16:00-24:00",
    "phone": "",
    "website": "",
    "source": "openstreetmap"
  },
  {
    "name_ar": "Critical",
    "name_en": "Critical",
    "category": "restaurants",
    "category_ar": "مطاعم",
    "description_ar": "مطاعم في الرياض",
    "lat": 24.6490683,
    "lng": 46.5512058,
    "neighborhood": "",
    "tags": [],
    "perfect_for": [],
    "price_level": "",
    "opening_hours": "Mo-Su 16:00-00:00",
    "phone": "",
    "website": "",
    "source": "openstreetmap"
  },
  {
    "name_ar": "Gold Sushi Club",
    "name_en": "Gold Sushi Club",
    "category": "restaurants",
    "category_ar": "مطاعم",
    "description_ar": "مطاعم في الرياض",
    "lat": 24.7527335,
    "lng": 46.6249425,
    "neighborhood": "",
    "tags": [],
    "perfect_for": [],
    "price_level": "",
    "opening_hours": "Mo-Su 13:00-01:00",
    "phone": "+966114993330",
    "website": "https://goldsushiclub.com/",
    "source": "openstreetmap"
  },
  {
    "name_ar": "شاورمر",
    "name_en": "شاورمر",
    "category": "restaurants",
    "category_ar": "مطاعم",
    "description_ar": "مطاعم في الرياض",
    "lat": 24.8114498,
    "lng": 46.6261347,
    "neighborhood": "",
    "tags": [],
    "perfect_for": [],
    "price_level": "",
    "opening_hours": "",
    "phone": "",
    "website": "",
    "source": "openstreetmap"
  },
  {
    "name_ar": "إبتسامة قهوة",
    "name_en": "إبتسامة قهوة",
    "category": "restaurants",
    "category_ar": "مطاعم",
    "description_ar": "مطاعم في الرياض",
    "lat": 24.8153366,
    "lng": 46.6357792,
    "neighborhood": "",
    "tags": [],
    "perfect_for": [],
    "price_level": "",
    "opening_hours": "",
    "phone": "",
    "website": "",
    "source": "openstreetmap"
  },
  {
    "name_ar": "ديوان القرية",
    "name_en": "ديوان القرية",
    "category": "restaurants",
    "category_ar": "مطاعم",
    "description_ar": "مطاعم في الرياض",
    "lat": 24.8170503,
    "lng": 46.6442351,
    "neighborhood": "",
    "tags": [],
    "perfect_for": [],
    "price_level": "",
    "opening_hours": "",
    "phone": "",
    "website": "",
    "source": "openstreetmap"
  },
  {
    "name_ar": "د. كيف",
    "name_en": "د. كيف",
    "category": "restaurants",
    "category_ar": "مطاعم",
    "description_ar": "مطاعم في الرياض",
    "lat": 24.8121903,
    "lng": 46.6466798,
    "neighborhood": "",
    "tags": [],
    "perfect_for": [],
    "price_level": "",
    "opening_hours": "",
    "phone": "",
    "website": "",
    "source": "openstreetmap"
  },
  {
    "name_ar": "جافا كافيه",
    "name_en": "جافا كافيه",
    "category": "restaurants",
    "category_ar": "مطاعم",
    "description_ar": "مطاعم في الرياض",
    "lat": 24.8110417,
    "lng": 46.6473017,
    "neighborhood": "",
    "tags": [],
    "perfect_for": [],
    "price_level": "",
    "opening_hours": "",
    "phone": "",
    "website": "",
    "source": "openstreetmap"
  },
  {
    "name_ar": "فرست بورت",
    "name_en": "فرست بورت",
    "category": "restaurants",
    "category_ar": "مطاعم",
    "description_ar": "مطاعم في الرياض",
    "lat": 24.8019702,
    "lng": 46.649084,
    "neighborhood": "",
    "tags": [],
    "perfect_for": [],
    "price_level": "",
    "opening_hours": "",
    "phone": "",
    "website": "",
    "source": "openstreetmap"
  },
  {
    "name_ar": "دانكن دونناتس",
    "name_en": "دانكن دونناتس",
    "category": "restaurants",
    "category_ar": "مطاعم",
    "description_ar": "مطاعم في الرياض",
    "lat": 24.7976332,
    "lng": 46.64175,
    "neighborhood": "",
    "tags": [],
    "perfect_for": [],
    "price_level": "",
    "opening_hours": "",
    "phone": "",
    "website": "",
    "source": "openstreetmap"
  },
  {
    "name_ar": "دانا كافيه",
    "name_en": "دانا كافيه",
    "category": "restaurants",
    "category_ar": "مطاعم",
    "description_ar": "مطاعم في الرياض",
    "lat": 24.7984163,
    "lng": 46.6424103,
    "neighborhood": "",
    "tags": [],
    "perfect_for": [],
    "price_level": "",
    "opening_hours": "",
    "phone": "",
    "website": "",
    "source": "openstreetmap"
  },
  {
    "name_ar": "Sweetella سويتلا",
    "name_en": "Sweetella سويتلا",
    "category": "restaurants",
    "category_ar": "مطاعم",
    "description_ar": "مطاعم في الرياض",
    "lat": 24.5762701,
    "lng": 46.6283512,
    "neighborhood": "",
    "tags": [],
    "perfect_for": [],
    "price_level": "",
    "opening_hours": "Mo-Su 16:00-1:00",
    "phone": "",
    "website": "",
    "source": "openstreetmap"
  },
  {
    "name_ar": "Restaurant Garden",
    "name_en": "Restaurant Garden",
    "category": "restaurants",
    "category_ar": "مطاعم",
    "description_ar": "مطاعم في الرياض",
    "lat": 24.6842462,
    "lng": 46.7772773,
    "neighborhood": "",
    "tags": [],
    "perfect_for": [],
    "price_level": "",
    "opening_hours": "",
    "phone": "",
    "website": "",
    "source": "openstreetmap"
  },
  {
    "name_ar": "SAYAKI",
    "name_en": "SAYAKI",
    "category": "restaurants",
    "category_ar": "مطاعم",
    "description_ar": "مطاعم في الرياض",
    "lat": 24.7665642,
    "lng": 46.6235273,
    "neighborhood": "",
    "tags": [],
    "perfect_for": [],
    "price_level": "",
    "opening_hours": "",
    "phone": "",
    "website": "",
    "source": "openstreetmap"
  },
  {
    "name_ar": "Sekkah 8",
    "name_en": "Sekkah 8",
    "category": "restaurants",
    "category_ar": "مطاعم",
    "description_ar": "مطاعم في الرياض",
    "lat": 24.8154568,
    "lng": 46.6883291,
    "neighborhood": "",
    "tags": [],
    "perfect_for": [],
    "price_level": "",
    "opening_hours": "",
    "phone": "",
    "website": "",
    "source": "openstreetmap"
  },
  {
    "name_ar": "Biryanak",
    "name_en": "Biryanak",
    "category": "restaurants",
    "category_ar": "مطاعم",
    "description_ar": "مطاعم في الرياض",
    "lat": 24.8153668,
    "lng": 46.6883727,
    "neighborhood": "",
    "tags": [],
    "perfect_for": [],
    "price_level": "",
    "opening_hours": "",
    "phone": "",
    "website": "",
    "source": "openstreetmap"
  },
  {
    "name_ar": "Shrimplus",
    "name_en": "Shrimplus",
    "category": "restaurants",
    "category_ar": "مطاعم",
    "description_ar": "مطاعم في الرياض",
    "lat": 24.8171253,
    "lng": 46.6872426,
    "neighborhood": "",
    "tags": [],
    "perfect_for": [],
    "price_level": "",
    "opening_hours": "",
    "phone": "",
    "website": "",
    "source": "openstreetmap"
  },
  {
    "name_ar": "Overdo Loung",
    "name_en": "Overdo Loung",
    "category": "restaurants",
    "category_ar": "مطاعم",
    "description_ar": "مطاعم في الرياض",
    "lat": 24.7155403,
    "lng": 46.659654,
    "neighborhood": "",
    "tags": [],
    "perfect_for": [],
    "price_level": "",
    "opening_hours": "Mo-Su 06:00-2:00",
    "phone": "",
    "website": "",
    "source": "openstreetmap"
  },
  {
    "name_ar": "Costa",
    "name_en": "Costa",
    "category": "restaurants",
    "category_ar": "مطاعم",
    "description_ar": "مطاعم في الرياض",
    "lat": 24.6917174,
    "lng": 46.7327699,
    "neighborhood": "",
    "tags": [],
    "perfect_for": [],
    "price_level": "",
    "opening_hours": "",
    "phone": "",
    "website": "",
    "source": "openstreetmap"
  },
  {
    "name_ar": "Turn Stone Pizza",
    "name_en": "Turn Stone Pizza",
    "category": "restaurants",
    "category_ar": "مطاعم",
    "description_ar": "مطاعم في الرياض",
    "lat": 24.6915708,
    "lng": 46.7329126,
    "neighborhood": "",
    "tags": [],
    "perfect_for": [],
    "price_level": "",
    "opening_hours": "",
    "phone": "",
    "website": "",
    "source": "openstreetmap"
  },
  {
    "name_ar": "ديل مار",
    "name_en": "ديل مار",
    "category": "restaurants",
    "category_ar": "مطاعم",
    "description_ar": "مطاعم في الرياض",
    "lat": 24.7812144,
    "lng": 46.662308,
    "neighborhood": "",
    "tags": [],
    "perfect_for": [],
    "price_level": "",
    "opening_hours": "Sa-Fr 12:00-00:00",
    "phone": "0590909192",
    "website": "https://www.instagram.com/delmar.ksa/",
    "source": "openstreetmap"
  },
  {
    "name_ar": "مقهى السيعينات 1974",
    "name_en": "مقهى السيعينات 1974",
    "category": "restaurants",
    "category_ar": "مطاعم",
    "description_ar": "مطاعم في الرياض",
    "lat": 24.7416445,
    "lng": 46.6453547,
    "neighborhood": "",
    "tags": [],
    "perfect_for": [],
    "price_level": "",
    "opening_hours": "Mo-Su 07:00-23:30",
    "phone": "",
    "website": "https://www.instagram.com/seventiescafesa/",
    "source": "openstreetmap"
  },
  {
    "name_ar": "Shuwa Express شوا اكسبرس",
    "name_en": "Shuwa Express شوا اكسبرس",
    "category": "restaurants",
    "category_ar": "مطاعم",
    "description_ar": "مطاعم في الرياض",
    "lat": 24.7855994,
    "lng": 46.6340773,
    "neighborhood": "",
    "tags": [],
    "perfect_for": [],
    "price_level": "",
    "opening_hours": "11:00-14:00",
    "phone": "",
    "website": "https://www.instagram.com/shuwaexpress.sa/",
    "source": "openstreetmap"
  },
  {
    "name_ar": "BurgerFuel",
    "name_en": "BurgerFuel",
    "category": "restaurants",
    "category_ar": "مطاعم",
    "description_ar": "مطاعم في الرياض",
    "lat": 24.6978182,
    "lng": 46.7041444,
    "neighborhood": "",
    "tags": [],
    "perfect_for": [],
    "price_level": "",
    "opening_hours": "",
    "phone": "+966114629595",
    "website": "https://burgerfuel.com",
    "source": "openstreetmap"
  },
  {
    "name_ar": "Shawarmer",
    "name_en": "Shawarmer",
    "category": "restaurants",
    "category_ar": "مطاعم",
    "description_ar": "مطاعم في الرياض",
    "lat": 24.5873024,
    "lng": 46.6244924,
    "neighborhood": "",
    "tags": [],
    "perfect_for": [],
    "price_level": "",
    "opening_hours": "",
    "phone": "",
    "website": "",
    "source": "openstreetmap"
  },
  {
    "name_ar": "Hummus Alhara",
    "name_en": "Hummus Alhara",
    "category": "restaurants",
    "category_ar": "مطاعم",
    "description_ar": "مطاعم في الرياض",
    "lat": 24.8546233,
    "lng": 46.6261115,
    "neighborhood": "",
    "tags": [],
    "perfect_for": [],
    "price_level": "",
    "opening_hours": "",
    "phone": "+966500115135",
    "website": "",
    "source": "openstreetmap"
  },
  {
    "name_ar": "ليفاني كوفي - Leivani coffee",
    "name_en": "ليفاني كوفي - Leivani coffee",
    "category": "restaurants",
    "category_ar": "مطاعم",
    "description_ar": "مطاعم في الرياض",
    "lat": 24.747746,
    "lng": 46.7018094,
    "neighborhood": "",
    "tags": [],
    "perfect_for": [],
    "price_level": "",
    "opening_hours": "06:00-24:00",
    "phone": "+966539344910",
    "website": "",
    "source": "openstreetmap"
  },
  {
    "name_ar": "فروت ارت",
    "name_en": "فروت ارت",
    "category": "restaurants",
    "category_ar": "مطاعم",
    "description_ar": "مطاعم في الرياض",
    "lat": 24.7257628,
    "lng": 46.6846076,
    "neighborhood": "",
    "tags": [],
    "perfect_for": [],
    "price_level": "",
    "opening_hours": "",
    "phone": "0562096888",
    "website": "https://instagram.com/@fruitart.w",
    "source": "openstreetmap"
  },
  {
    "name_ar": "جان برجر",
    "name_en": "جان برجر",
    "category": "restaurants",
    "category_ar": "مطاعم",
    "description_ar": "مطاعم في الرياض",
    "lat": 24.7897495,
    "lng": 46.6483591,
    "neighborhood": "",
    "tags": [],
    "perfect_for": [],
    "price_level": "",
    "opening_hours": "Mo-Su 12:00-03:00",
    "phone": "",
    "website": "",
    "source": "openstreetmap"
  },
  {
    "name_ar": "مايسترو بيتزا",
    "name_en": "مايسترو بيتزا",
    "category": "restaurants",
    "category_ar": "مطاعم",
    "description_ar": "مطاعم في الرياض",
    "lat": 24.7895902,
    "lng": 46.6484843,
    "neighborhood": "",
    "tags": [],
    "perfect_for": [],
    "price_level": "",
    "opening_hours": "Mo-Su 11:00-13:00",
    "phone": "",
    "website": "",
    "source": "openstreetmap"
  },
  {
    "name_ar": "هرر كافية - Harar Cafe",
    "name_en": "هرر كافية - Harar Cafe",
    "category": "restaurants",
    "category_ar": "مطاعم",
    "description_ar": "مطاعم في الرياض",
    "lat": 24.6377603,
    "lng": 46.5732334,
    "neighborhood": "",
    "tags": [],
    "perfect_for": [],
    "price_level": "",
    "opening_hours": "Mo-Su 09:00-21:00",
    "phone": "+966549980702",
    "website": "",
    "source": "openstreetmap"
  },
  {
    "name_ar": "واينز",
    "name_en": "واينز",
    "category": "restaurants",
    "category_ar": "مطاعم",
    "description_ar": "مطاعم في الرياض",
    "lat": 24.847172,
    "lng": 46.7334545,
    "neighborhood": "",
    "tags": [],
    "perfect_for": [],
    "price_level": "",
    "opening_hours": "",
    "phone": "",
    "website": "",
    "source": "openstreetmap"
  },
  {
    "name_ar": "بيتزاراتزي",
    "name_en": "بيتزاراتزي",
    "category": "restaurants",
    "category_ar": "مطاعم",
    "description_ar": "مطاعم في الرياض",
    "lat": 24.6863504,
    "lng": 46.7949666,
    "neighborhood": "",
    "tags": [],
    "perfect_for": [],
    "price_level": "",
    "opening_hours": "",
    "phone": "",
    "website": "",
    "source": "openstreetmap"
  },
  {
    "name_ar": "أبو جبارة",
    "name_en": "أبو جبارة",
    "category": "restaurants",
    "category_ar": "مطاعم",
    "description_ar": "مطاعم في الرياض",
    "lat": 24.6863809,
    "lng": 46.7950384,
    "neighborhood": "",
    "tags": [],
    "perfect_for": [],
    "price_level": "",
    "opening_hours": "",
    "phone": "",
    "website": "",
    "source": "openstreetmap"
  },
  {
    "name_ar": "دومينوز",
    "name_en": "دومينوز",
    "category": "restaurants",
    "category_ar": "مطاعم",
    "description_ar": "مطاعم في الرياض",
    "lat": 24.686402,
    "lng": 46.7950881,
    "neighborhood": "",
    "tags": [],
    "perfect_for": [],
    "price_level": "",
    "opening_hours": "",
    "phone": "",
    "website": "",
    "source": "openstreetmap"
  },
  {
    "name_ar": "شاورما بلس",
    "name_en": "شاورما بلس",
    "category": "restaurants",
    "category_ar": "مطاعم",
    "description_ar": "مطاعم في الرياض",
    "lat": 24.6862892,
    "lng": 46.7948402,
    "neighborhood": "",
    "tags": [],
    "perfect_for": [],
    "price_level": "",
    "opening_hours": "",
    "phone": "",
    "website": "",
    "source": "openstreetmap"
  },
  {
    "name_ar": "منؤشة",
    "name_en": "منؤشة",
    "category": "restaurants",
    "category_ar": "مطاعم",
    "description_ar": "مطاعم في الرياض",
    "lat": 24.6863286,
    "lng": 46.7949193,
    "neighborhood": "",
    "tags": [],
    "perfect_for": [],
    "price_level": "",
    "opening_hours": "",
    "phone": "",
    "website": "",
    "source": "openstreetmap"
  },
  {
    "name_ar": "TOPKAPI Tahlia",
    "name_en": "TOPKAPI Tahlia",
    "category": "restaurants",
    "category_ar": "مطاعم",
    "description_ar": "مطاعم في الرياض",
    "lat": 24.6942229,
    "lng": 46.6794301,
    "neighborhood": "",
    "tags": [],
    "perfect_for": [],
    "price_level": "",
    "opening_hours": "",
    "phone": "+966559898588",
    "website": "https://www.topkapirest.com/",
    "source": "openstreetmap"
  },
  {
    "name_ar": "Core Coffee & Roastery",
    "name_en": "Core Coffee & Roastery",
    "category": "restaurants",
    "category_ar": "مطاعم",
    "description_ar": "مطاعم في الرياض",
    "lat": 24.8179288,
    "lng": 46.6868459,
    "neighborhood": "",
    "tags": [],
    "perfect_for": [],
    "price_level": "",
    "opening_hours": "Mo-Su 06:00-23:59",
    "phone": "+9668001228222",
    "website": "http://www.corecoffee.co",
    "source": "openstreetmap"
  },
  {
    "name_ar": "Hardee's",
    "name_en": "Hardee's",
    "category": "restaurants",
    "category_ar": "مطاعم",
    "description_ar": "مطاعم في الرياض",
    "lat": 24.8007983,
    "lng": 46.7437233,
    "neighborhood": "",
    "tags": [],
    "perfect_for": [],
    "price_level": "",
    "opening_hours": "",
    "phone": "",
    "website": "",
    "source": "openstreetmap"
  },
  {
    "name_ar": "Hashwa",
    "name_en": "Hashwa",
    "category": "restaurants",
    "category_ar": "مطاعم",
    "description_ar": "مطاعم في الرياض",
    "lat": 24.7743793,
    "lng": 46.7254685,
    "neighborhood": "",
    "tags": [],
    "perfect_for": [],
    "price_level": "",
    "opening_hours": "Mo-Su 12:30-24:00",
    "phone": "",
    "website": "",
    "source": "openstreetmap"
  },
  {
    "name_ar": "Club Coffee",
    "name_en": "Club Coffee",
    "category": "restaurants",
    "category_ar": "مطاعم",
    "description_ar": "مطاعم في الرياض",
    "lat": 24.7718406,
    "lng": 46.7195512,
    "neighborhood": "",
    "tags": [],
    "perfect_for": [],
    "price_level": "",
    "opening_hours": "Mo-Sa 16:00-02:00",
    "phone": "+966555698822",
    "website": "https://foursquare.com/v/%D9%86%D8%A7%D8%AF%D9%8A-%D8%A7%D9%84%D9%82%D9%87%D9%88%D8%A9/614f5eda3aa8e010e664a264",
    "source": "openstreetmap"
  },
  {
    "name_ar": "مطعم الخروف للمأكولات الكويتية",
    "name_en": "مطعم الخروف للمأكولات الكويتية",
    "category": "restaurants",
    "category_ar": "مطاعم",
    "description_ar": "مطاعم في الرياض",
    "lat": 24.805779,
    "lng": 46.6605281,
    "neighborhood": "",
    "tags": [],
    "perfect_for": [],
    "price_level": "",
    "opening_hours": "24/7",
    "phone": "+966112222200",
    "website": "https://linktr.ee/alkhrof",
    "source": "openstreetmap"
  },
  {
    "name_ar": "Novels Bakery Narjes - نوفلز بيكري النرجس",
    "name_en": "Novels Bakery Narjes - نوفلز بيكري النرجس",
    "category": "restaurants",
    "category_ar": "مطاعم",
    "description_ar": "مطاعم في الرياض",
    "lat": 24.8748206,
    "lng": 46.6382577,
    "neighborhood": "",
    "tags": [],
    "perfect_for": [],
    "price_level": "",
    "opening_hours": "",
    "phone": "0593124440",
    "website": "https://www.instagram.com/novels_bakery/?hl=en",
    "source": "openstreetmap"
  },
  {
    "name_ar": "La Rustica",
    "name_en": "La Rustica",
    "category": "restaurants",
    "category_ar": "مطاعم",
    "description_ar": "مطاعم في الرياض",
    "lat": 24.6944926,
    "lng": 46.6834965,
    "neighborhood": "",
    "tags": [],
    "perfect_for": [],
    "price_level": "",
    "opening_hours": "",
    "phone": "",
    "website": "",
    "source": "openstreetmap"
  },
  {
    "name_ar": "Entrecôte Café de Paris",
    "name_en": "Entrecôte Café de Paris",
    "category": "restaurants",
    "category_ar": "مطاعم",
    "description_ar": "مطاعم في الرياض",
    "lat": 24.6899848,
    "lng": 46.6848564,
    "neighborhood": "",
    "tags": [],
    "perfect_for": [],
    "price_level": "",
    "opening_hours": "",
    "phone": "+966920018998",
    "website": "https://entrecote-cdp.com/",
    "source": "openstreetmap"
  },
  {
    "name_ar": "ROA Lounge",
    "name_en": "ROA Lounge",
    "category": "restaurants",
    "category_ar": "مطاعم",
    "description_ar": "مطاعم في الرياض",
    "lat": 24.7278517,
    "lng": 46.6631039,
    "neighborhood": "",
    "tags": [],
    "perfect_for": [],
    "price_level": "",
    "opening_hours": "",
    "phone": "",
    "website": "",
    "source": "openstreetmap"
  },
  {
    "name_ar": "NOOR CAFE | نور كافيه",
    "name_en": "NOOR CAFE | نور كافيه",
    "category": "restaurants",
    "category_ar": "مطاعم",
    "description_ar": "مطاعم في الرياض",
    "lat": 24.7739257,
    "lng": 46.7093414,
    "neighborhood": "",
    "tags": [],
    "perfect_for": [],
    "price_level": "",
    "opening_hours": "2pm to 12pm",
    "phone": "",
    "website": "https://noor-coffee.com/",
    "source": "openstreetmap"
  },
  {
    "name_ar": "مقهى و لاونج كونسوليشن",
    "name_en": "مقهى و لاونج كونسوليشن",
    "category": "restaurants",
    "category_ar": "مطاعم",
    "description_ar": "مطاعم في الرياض",
    "lat": 24.8174657,
    "lng": 46.6440234,
    "neighborhood": "",
    "tags": [],
    "perfect_for": [],
    "price_level": "",
    "opening_hours": "",
    "phone": "+966532944236",
    "website": "https://www.snapchat.com/add/consolationcafe",
    "source": "openstreetmap"
  },
  {
    "name_ar": "TACOSON تاكوسون",
    "name_en": "TACOSON تاكوسون",
    "category": "restaurants",
    "category_ar": "مطاعم",
    "description_ar": "مطاعم في الرياض",
    "lat": 24.7900834,
    "lng": 46.6368206,
    "neighborhood": "",
    "tags": [],
    "perfect_for": [],
    "price_level": "",
    "opening_hours": "Mo-Su 17:00-01:00",
    "phone": "",
    "website": "https://www.instagram.com/tacoson_sa/",
    "source": "openstreetmap"
  },
  {
    "name_ar": "Achay | اچاي",
    "name_en": "Achay | اچاي",
    "category": "restaurants",
    "category_ar": "مطاعم",
    "description_ar": "مطاعم في الرياض",
    "lat": 24.8499457,
    "lng": 46.7651546,
    "neighborhood": "",
    "tags": [],
    "perfect_for": [],
    "price_level": "",
    "opening_hours": "",
    "phone": "+9660506185545",
    "website": "achaytea.com",
    "source": "openstreetmap"
  },
  {
    "name_ar": "عصير تسنيم",
    "name_en": "TASNIM Juice",
    "category": "restaurants",
    "category_ar": "مطاعم",
    "description_ar": "مطاعم في الرياض",
    "lat": 24.7823987,
    "lng": 46.6493481,
    "neighborhood": "",
    "tags": [],
    "perfect_for": [],
    "price_level": "",
    "opening_hours": "",
    "phone": "",
    "website": "",
    "source": "openstreetmap"
  },
  {
    "name_ar": "DONUTERIA",
    "name_en": "DONUTERIA",
    "category": "restaurants",
    "category_ar": "مطاعم",
    "description_ar": "مطاعم في الرياض",
    "lat": 24.7823054,
    "lng": 46.649154,
    "neighborhood": "",
    "tags": [],
    "perfect_for": [],
    "price_level": "",
    "opening_hours": "",
    "phone": "",
    "website": "",
    "source": "openstreetmap"
  },
  {
    "name_ar": "ساين",
    "name_en": "Sign",
    "category": "restaurants",
    "category_ar": "مطاعم",
    "description_ar": "مطاعم في الرياض",
    "lat": 24.7857265,
    "lng": 46.6457639,
    "neighborhood": "",
    "tags": [],
    "perfect_for": [],
    "price_level": "",
    "opening_hours": "",
    "phone": "",
    "website": "",
    "source": "openstreetmap"
  },
  {
    "name_ar": "شرمبشاك",
    "name_en": "Shrimp Shack",
    "category": "restaurants",
    "category_ar": "مطاعم",
    "description_ar": "مطاعم في الرياض",
    "lat": 24.7938651,
    "lng": 46.6548152,
    "neighborhood": "",
    "tags": [],
    "perfect_for": [],
    "price_level": "",
    "opening_hours": "",
    "phone": "",
    "website": "https://shrimpshack.com.sa",
    "source": "openstreetmap"
  },
  {
    "name_ar": "بيتزاراتي",
    "name_en": "Pizzarati",
    "category": "restaurants",
    "category_ar": "مطاعم",
    "description_ar": "مطاعم في الرياض",
    "lat": 24.7939102,
    "lng": 46.6548973,
    "neighborhood": "",
    "tags": [],
    "perfect_for": [],
    "price_level": "",
    "opening_hours": "",
    "phone": "",
    "website": "",
    "source": "openstreetmap"
  },
  {
    "name_ar": "ثري لاينز",
    "name_en": "Three Lines",
    "category": "restaurants",
    "category_ar": "مطاعم",
    "description_ar": "مطاعم في الرياض",
    "lat": 24.7940422,
    "lng": 46.6552506,
    "neighborhood": "",
    "tags": [],
    "perfect_for": [],
    "price_level": "",
    "opening_hours": "",
    "phone": "",
    "website": "",
    "source": "openstreetmap"
  },
  {
    "name_ar": "جال الوادي",
    "name_en": "جال الوادي",
    "category": "restaurants",
    "category_ar": "مطاعم",
    "description_ar": "مطاعم في الرياض",
    "lat": 24.7433743,
    "lng": 46.5640768,
    "neighborhood": "",
    "tags": [],
    "perfect_for": [],
    "price_level": "",
    "opening_hours": "24/7",
    "phone": "",
    "website": "",
    "source": "openstreetmap"
  },
  {
    "name_ar": "نقطة | قهوة مختصة",
    "name_en": "نقطة | قهوة مختصة",
    "category": "restaurants",
    "category_ar": "مطاعم",
    "description_ar": "مطاعم في الرياض",
    "lat": 24.7795758,
    "lng": 46.6826275,
    "neighborhood": "",
    "tags": [],
    "perfect_for": [],
    "price_level": "",
    "opening_hours": "24/7",
    "phone": "+966538882773",
    "website": "",
    "source": "openstreetmap"
  },
  {
    "name_ar": "Byo",
    "name_en": "Byo",
    "category": "restaurants",
    "category_ar": "مطاعم",
    "description_ar": "مطاعم في الرياض",
    "lat": 24.6926929,
    "lng": 46.6743873,
    "neighborhood": "",
    "tags": [],
    "perfect_for": [],
    "price_level": "",
    "opening_hours": "",
    "phone": "",
    "website": "",
    "source": "openstreetmap"
  },
  {
    "name_ar": "المذاق المغربي",
    "name_en": "Moroccan Taste",
    "category": "restaurants",
    "category_ar": "مطاعم",
    "description_ar": "مطاعم في الرياض",
    "lat": 24.7891298,
    "lng": 46.6482871,
    "neighborhood": "",
    "tags": [],
    "perfect_for": [],
    "price_level": "",
    "opening_hours": "",
    "phone": "",
    "website": "https://moroccantaste.sa/",
    "source": "openstreetmap"
  },
  {
    "name_ar": "كت لت",
    "name_en": "Kutlet",
    "category": "restaurants",
    "category_ar": "مطاعم",
    "description_ar": "مطاعم في الرياض",
    "lat": 24.7883886,
    "lng": 46.6478987,
    "neighborhood": "",
    "tags": [],
    "perfect_for": [],
    "price_level": "",
    "opening_hours": "",
    "phone": "",
    "website": "",
    "source": "openstreetmap"
  },
  {
    "name_ar": "دستي دو",
    "name_en": "Dusty Dough",
    "category": "restaurants",
    "category_ar": "مطاعم",
    "description_ar": "مطاعم في الرياض",
    "lat": 24.7883255,
    "lng": 46.6481679,
    "neighborhood": "",
    "tags": [],
    "perfect_for": [],
    "price_level": "",
    "opening_hours": "",
    "phone": "",
    "website": "",
    "source": "openstreetmap"
  },
  {
    "name_ar": "أورنيه",
    "name_en": "Orné",
    "category": "restaurants",
    "category_ar": "مطاعم",
    "description_ar": "مطاعم في الرياض",
    "lat": 24.7881738,
    "lng": 46.6480227,
    "neighborhood": "",
    "tags": [],
    "perfect_for": [],
    "price_level": "",
    "opening_hours": "",
    "phone": "",
    "website": "",
    "source": "openstreetmap"
  },
  {
    "name_ar": "بل بيرد",
    "name_en": "Bellbird",
    "category": "restaurants",
    "category_ar": "مطاعم",
    "description_ar": "مطاعم في الرياض",
    "lat": 24.7885217,
    "lng": 46.6479657,
    "neighborhood": "",
    "tags": [],
    "perfect_for": [],
    "price_level": "",
    "opening_hours": "",
    "phone": "",
    "website": "",
    "source": "openstreetmap"
  },
  {
    "name_ar": "عصير تايم",
    "name_en": "",
    "category": "restaurants",
    "category_ar": "مطاعم",
    "description_ar": "مطاعم في الرياض",
    "lat": 24.8184198,
    "lng": 46.6445601,
    "neighborhood": "",
    "tags": [],
    "perfect_for": [],
    "price_level": "",
    "opening_hours": "",
    "phone": "",
    "website": "",
    "source": "openstreetmap"
  },
  {
    "name_ar": "مزيج",
    "name_en": "Mazij",
    "category": "restaurants",
    "category_ar": "مطاعم",
    "description_ar": "مطاعم في الرياض",
    "lat": 24.7995476,
    "lng": 46.6748532,
    "neighborhood": "",
    "tags": [],
    "perfect_for": [],
    "price_level": "",
    "opening_hours": "",
    "phone": "",
    "website": "",
    "source": "openstreetmap"
  },
  {
    "name_ar": "Baskin-Robbins",
    "name_en": "Baskin-Robbins",
    "category": "restaurants",
    "category_ar": "مطاعم",
    "description_ar": "مطاعم في الرياض",
    "lat": 24.8084017,
    "lng": 46.6693647,
    "neighborhood": "",
    "tags": [],
    "perfect_for": [],
    "price_level": "",
    "opening_hours": "",
    "phone": "",
    "website": "",
    "source": "openstreetmap"
  },
  {
    "name_ar": "تيم هورتونز",
    "name_en": "Tim Hortons",
    "category": "restaurants",
    "category_ar": "مطاعم",
    "description_ar": "مطاعم في الرياض",
    "lat": 24.8084506,
    "lng": 46.6695775,
    "neighborhood": "",
    "tags": [],
    "perfect_for": [],
    "price_level": "",
    "opening_hours": "",
    "phone": "",
    "website": "",
    "source": "openstreetmap"
  },
  {
    "name_ar": "السلطان",
    "name_en": "Sultan’s steakhouse",
    "category": "restaurants",
    "category_ar": "مطاعم",
    "description_ar": "مطاعم في الرياض",
    "lat": 24.7499952,
    "lng": 46.6141769,
    "neighborhood": "",
    "tags": [],
    "perfect_for": [],
    "price_level": "",
    "opening_hours": "",
    "phone": "",
    "website": "",
    "source": "openstreetmap"
  },
  {
    "name_ar": "Tahlia Taste",
    "name_en": "Tahlia Taste",
    "category": "restaurants",
    "category_ar": "مطاعم",
    "description_ar": "مطاعم في الرياض",
    "lat": 24.70258,
    "lng": 46.6974275,
    "neighborhood": "",
    "tags": [],
    "perfect_for": [],
    "price_level": "",
    "opening_hours": "Mo-Su 15:00-07:00",
    "phone": "+966580694093",
    "website": "https://caesar.tryorder.net/link",
    "source": "openstreetmap"
  },
  {
    "name_ar": "23M",
    "name_en": "23M",
    "category": "restaurants",
    "category_ar": "مطاعم",
    "description_ar": "مطاعم في الرياض",
    "lat": 24.746056,
    "lng": 46.7084468,
    "neighborhood": "",
    "tags": [],
    "perfect_for": [],
    "price_level": "",
    "opening_hours": "",
    "phone": "",
    "website": "",
    "source": "openstreetmap"
  },
  {
    "name_ar": "هيتكا | hetkia",
    "name_en": "هيتكا | hetkia",
    "category": "restaurants",
    "category_ar": "مطاعم",
    "description_ar": "مطاعم في الرياض",
    "lat": 24.7323356,
    "lng": 46.6756975,
    "neighborhood": "",
    "tags": [],
    "perfect_for": [],
    "price_level": "",
    "opening_hours": "Mo-Su 16:00-00:00",
    "phone": "+966501206686",
    "website": "https://linkpop.com/hetkia",
    "source": "openstreetmap"
  },
  {
    "name_ar": "Macboos Restaurant",
    "name_en": "Macboos Restaurant",
    "category": "restaurants",
    "category_ar": "مطاعم",
    "description_ar": "مطاعم في الرياض",
    "lat": 24.6941861,
    "lng": 46.6793722,
    "neighborhood": "",
    "tags": [],
    "perfect_for": [],
    "price_level": "",
    "opening_hours": "Mo-Su 13:00-01:00",
    "phone": "+966544660904",
    "website": "http://macboos.rf.gd/",
    "source": "openstreetmap"
  },
  {
    "name_ar": "بابا جونز",
    "name_en": "papa johns",
    "category": "restaurants",
    "category_ar": "مطاعم",
    "description_ar": "مطاعم في الرياض",
    "lat": 24.7616257,
    "lng": 46.6734283,
    "neighborhood": "",
    "tags": [],
    "perfect_for": [],
    "price_level": "",
    "opening_hours": "",
    "phone": "",
    "website": "",
    "source": "openstreetmap"
  },
  {
    "name_ar": "سيجنتشر",
    "name_en": "signature",
    "category": "restaurants",
    "category_ar": "مطاعم",
    "description_ar": "مطاعم في الرياض",
    "lat": 24.7616639,
    "lng": 46.6733369,
    "neighborhood": "",
    "tags": [],
    "perfect_for": [],
    "price_level": "",
    "opening_hours": "",
    "phone": "",
    "website": "",
    "source": "openstreetmap"
  },
  {
    "name_ar": "كازا باستا",
    "name_en": "caza pasta",
    "category": "restaurants",
    "category_ar": "مطاعم",
    "description_ar": "مطاعم في الرياض",
    "lat": 24.7615485,
    "lng": 46.6730384,
    "neighborhood": "",
    "tags": [],
    "perfect_for": [],
    "price_level": "",
    "opening_hours": "",
    "phone": "",
    "website": "",
    "source": "openstreetmap"
  },
  {
    "name_ar": "كانتون",
    "name_en": "Canton",
    "category": "restaurants",
    "category_ar": "مطاعم",
    "description_ar": "مطاعم في الرياض",
    "lat": 24.7616196,
    "lng": 46.6732453,
    "neighborhood": "",
    "tags": [],
    "perfect_for": [],
    "price_level": "",
    "opening_hours": "Mo-Su 11:00-03:30",
    "phone": "+966 9200 00129",
    "website": "https://canton-express.com",
    "source": "openstreetmap"
  },
  {
    "name_ar": "CENTURY CAFE",
    "name_en": "CENTURY CAFE",
    "category": "restaurants",
    "category_ar": "مطاعم",
    "description_ar": "مطاعم في الرياض",
    "lat": 24.8044397,
    "lng": 46.6738422,
    "neighborhood": "",
    "tags": [],
    "perfect_for": [],
    "price_level": "",
    "opening_hours": "Mo-Sa 08:00-2:00",
    "phone": "+966533331189",
    "website": "",
    "source": "openstreetmap"
  },
  {
    "name_ar": "بروستد أكشنها",
    "name_en": "",
    "category": "restaurants",
    "category_ar": "مطاعم",
    "description_ar": "مطاعم في الرياض",
    "lat": 24.7947921,
    "lng": 46.6321886,
    "neighborhood": "",
    "tags": [],
    "perfect_for": [],
    "price_level": "",
    "opening_hours": "",
    "phone": "",
    "website": "",
    "source": "openstreetmap"
  },
  {
    "name_ar": "كرسبي كريم",
    "name_en": "Krispy Krem",
    "category": "restaurants",
    "category_ar": "مطاعم",
    "description_ar": "مطاعم في الرياض",
    "lat": 24.8356601,
    "lng": 46.6838059,
    "neighborhood": "",
    "tags": [],
    "perfect_for": [],
    "price_level": "",
    "opening_hours": "",
    "phone": "",
    "website": "",
    "source": "openstreetmap"
  },
  {
    "name_ar": "bof - بوف",
    "name_en": "bof - بوف",
    "category": "restaurants",
    "category_ar": "مطاعم",
    "description_ar": "مطاعم في الرياض",
    "lat": 24.7501152,
    "lng": 46.722583,
    "neighborhood": "",
    "tags": [],
    "perfect_for": [],
    "price_level": "",
    "opening_hours": "Mo-Su 17:00-1:00",
    "phone": "+966536707039",
    "website": "https://www.bofksa.com/",
    "source": "openstreetmap"
  },
  {
    "name_ar": "Usta Asim",
    "name_en": "Usta Asim",
    "category": "restaurants",
    "category_ar": "مطاعم",
    "description_ar": "مطاعم في الرياض",
    "lat": 24.795466,
    "lng": 46.6983377,
    "neighborhood": "",
    "tags": [],
    "perfect_for": [],
    "price_level": "",
    "opening_hours": "13:00 - 2:30",
    "phone": "+966 55 326 0491",
    "website": "https://ustaasim.com",
    "source": "openstreetmap"
  },
  {
    "name_ar": "محمصة ريبوستري",
    "name_en": "Repository Coffee Roasters",
    "category": "restaurants",
    "category_ar": "مطاعم",
    "description_ar": "مطاعم في الرياض",
    "lat": 24.8110205,
    "lng": 46.670064,
    "neighborhood": "",
    "tags": [],
    "perfect_for": [],
    "price_level": "",
    "opening_hours": "",
    "phone": "+966 53 772 2221",
    "website": "https://repository.sa/",
    "source": "openstreetmap"
  },
  {
    "name_ar": "Kaifan Juice",
    "name_en": "Kaifan Juice",
    "category": "restaurants",
    "category_ar": "مطاعم",
    "description_ar": "مطاعم في الرياض",
    "lat": 24.8235373,
    "lng": 46.6552443,
    "neighborhood": "",
    "tags": [],
    "perfect_for": [],
    "price_level": "",
    "opening_hours": "",
    "phone": "",
    "website": "",
    "source": "openstreetmap"
  },
  {
    "name_ar": "WokKong",
    "name_en": "WokKong",
    "category": "restaurants",
    "category_ar": "مطاعم",
    "description_ar": "مطاعم في الرياض",
    "lat": 24.8235439,
    "lng": 46.6559329,
    "neighborhood": "",
    "tags": [],
    "perfect_for": [],
    "price_level": "",
    "opening_hours": "",
    "phone": "",
    "website": "",
    "source": "openstreetmap"
  },
  {
    "name_ar": "Burgery",
    "name_en": "Burgery",
    "category": "restaurants",
    "category_ar": "مطاعم",
    "description_ar": "مطاعم في الرياض",
    "lat": 24.8235673,
    "lng": 46.6559817,
    "neighborhood": "",
    "tags": [],
    "perfect_for": [],
    "price_level": "",
    "opening_hours": "",
    "phone": "",
    "website": "",
    "source": "openstreetmap"
  },
  {
    "name_ar": "دانكن",
    "name_en": "Dunkin'",
    "category": "restaurants",
    "category_ar": "مطاعم",
    "description_ar": "مطاعم في الرياض",
    "lat": 24.8236352,
    "lng": 46.6560447,
    "neighborhood": "",
    "tags": [],
    "perfect_for": [],
    "price_level": "",
    "opening_hours": "",
    "phone": "",
    "website": "",
    "source": "openstreetmap"
  },
  {
    "name_ar": "Cafe Bateel",
    "name_en": "Cafe Bateel",
    "category": "restaurants",
    "category_ar": "مطاعم",
    "description_ar": "مطاعم في الرياض",
    "lat": 24.7343251,
    "lng": 46.5745274,
    "neighborhood": "",
    "tags": [],
    "perfect_for": [],
    "price_level": "",
    "opening_hours": "",
    "phone": "",
    "website": "",
    "source": "openstreetmap"
  },
  {
    "name_ar": "Dunkin",
    "name_en": "Dunkin",
    "category": "restaurants",
    "category_ar": "مطاعم",
    "description_ar": "مطاعم في الرياض",
    "lat": 24.7534435,
    "lng": 46.7265979,
    "neighborhood": "",
    "tags": [],
    "perfect_for": [],
    "price_level": "",
    "opening_hours": "",
    "phone": "",
    "website": "",
    "source": "openstreetmap"
  },
  {
    "name_ar": "Dhahia Juice",
    "name_en": "Dhahia Juice",
    "category": "restaurants",
    "category_ar": "مطاعم",
    "description_ar": "مطاعم في الرياض",
    "lat": 24.8393628,
    "lng": 46.732541,
    "neighborhood": "",
    "tags": [],
    "perfect_for": [],
    "price_level": "",
    "opening_hours": "",
    "phone": "",
    "website": "",
    "source": "openstreetmap"
  },
  {
    "name_ar": "Shake Shack",
    "name_en": "Shake Shack",
    "category": "restaurants",
    "category_ar": "مطاعم",
    "description_ar": "مطاعم في الرياض",
    "lat": 24.7692937,
    "lng": 46.6049349,
    "neighborhood": "",
    "tags": [],
    "perfect_for": [],
    "price_level": "",
    "opening_hours": "",
    "phone": "",
    "website": "",
    "source": "openstreetmap"
  },
  {
    "name_ar": "Chuck E. Cheese",
    "name_en": "Chuck E. Cheese",
    "category": "restaurants",
    "category_ar": "مطاعم",
    "description_ar": "مطاعم في الرياض",
    "lat": 24.7685681,
    "lng": 46.60543,
    "neighborhood": "",
    "tags": [],
    "perfect_for": [],
    "price_level": "",
    "opening_hours": "",
    "phone": "",
    "website": "",
    "source": "openstreetmap"
  },
  {
    "name_ar": "Papa John's",
    "name_en": "Papa John's",
    "category": "restaurants",
    "category_ar": "مطاعم",
    "description_ar": "مطاعم في الرياض",
    "lat": 24.768013,
    "lng": 46.6049306,
    "neighborhood": "",
    "tags": [],
    "perfect_for": [],
    "price_level": "",
    "opening_hours": "",
    "phone": "",
    "website": "",
    "source": "openstreetmap"
  },
  {
    "name_ar": "Burger Passion",
    "name_en": "Burger Passion",
    "category": "restaurants",
    "category_ar": "مطاعم",
    "description_ar": "مطاعم في الرياض",
    "lat": 24.7678679,
    "lng": 46.6048215,
    "neighborhood": "",
    "tags": [],
    "perfect_for": [],
    "price_level": "",
    "opening_hours": "",
    "phone": "",
    "website": "",
    "source": "openstreetmap"
  },
  {
    "name_ar": "Masami Sushi",
    "name_en": "Masami Sushi",
    "category": "restaurants",
    "category_ar": "مطاعم",
    "description_ar": "مطاعم في الرياض",
    "lat": 24.7669223,
    "lng": 46.6048026,
    "neighborhood": "",
    "tags": [],
    "perfect_for": [],
    "price_level": "",
    "opening_hours": "",
    "phone": "",
    "website": "",
    "source": "openstreetmap"
  },
  {
    "name_ar": "Randy's Donuts",
    "name_en": "Randy's Donuts",
    "category": "restaurants",
    "category_ar": "مطاعم",
    "description_ar": "مطاعم في الرياض",
    "lat": 24.7695001,
    "lng": 46.6048778,
    "neighborhood": "",
    "tags": [],
    "perfect_for": [],
    "price_level": "",
    "opening_hours": "",
    "phone": "",
    "website": "",
    "source": "openstreetmap"
  },
  {
    "name_ar": "Ranosh",
    "name_en": "Ranosh",
    "category": "restaurants",
    "category_ar": "مطاعم",
    "description_ar": "مطاعم في الرياض",
    "lat": 24.8336759,
    "lng": 46.733879,
    "neighborhood": "",
    "tags": [],
    "perfect_for": [],
    "price_level": "",
    "opening_hours": "",
    "phone": "",
    "website": "",
    "source": "openstreetmap"
  },
  {
    "name_ar": "Be Karam بي كرم",
    "name_en": "Be Karam بي كرم",
    "category": "restaurants",
    "category_ar": "مطاعم",
    "description_ar": "مطاعم في الرياض",
    "lat": 24.7413004,
    "lng": 46.6463797,
    "neighborhood": "",
    "tags": [],
    "perfect_for": [],
    "price_level": "",
    "opening_hours": "",
    "phone": "+966547006777",
    "website": "https://linktr.ee/bekaramofficial",
    "source": "openstreetmap"
  },
  {
    "name_ar": "Vendor Coffee - مقهى فيندور",
    "name_en": "Vendor Coffee - مقهى فيندور",
    "category": "restaurants",
    "category_ar": "مطاعم",
    "description_ar": "مطاعم في الرياض",
    "lat": 24.7558162,
    "lng": 46.7718623,
    "neighborhood": "",
    "tags": [],
    "perfect_for": [],
    "price_level": "",
    "opening_hours": "Fr-Su 06:00-02:00",
    "phone": "057 013 1508",
    "website": "https://vendorcoffee.cafe/",
    "source": "openstreetmap"
  },
  {
    "name_ar": "مقهى الكنافة",
    "name_en": "مقهى الكنافة",
    "category": "restaurants",
    "category_ar": "مطاعم",
    "description_ar": "مطاعم في الرياض",
    "lat": 24.7007992,
    "lng": 46.6737246,
    "neighborhood": "",
    "tags": [],
    "perfect_for": [],
    "price_level": "",
    "opening_hours": "12pm-1am",
    "phone": "0502405040",
    "website": "",
    "source": "openstreetmap"
  },
  {
    "name_ar": "Limon Cafe",
    "name_en": "Limon Cafe",
    "category": "restaurants",
    "category_ar": "مطاعم",
    "description_ar": "مطاعم في الرياض",
    "lat": 24.6949327,
    "lng": 46.684843,
    "neighborhood": "",
    "tags": [],
    "perfect_for": [],
    "price_level": "",
    "opening_hours": "",
    "phone": "",
    "website": "",
    "source": "openstreetmap"
  },
  {
    "name_ar": "Chotto Matte Riyadh",
    "name_en": "Chotto Matte Riyadh",
    "category": "restaurants",
    "category_ar": "مطاعم",
    "description_ar": "مطاعم في الرياض",
    "lat": 24.7677084,
    "lng": 46.6404435,
    "neighborhood": "",
    "tags": [],
    "perfect_for": [],
    "price_level": "",
    "opening_hours": "Mo-Su 17:00-01:00",
    "phone": "+966 9200 15023",
    "website": "https://chotto-matte.com/riyadh/",
    "source": "openstreetmap"
  },
  {
    "name_ar": "إيرث كافيه",
    "name_en": "Urth Caffe",
    "category": "restaurants",
    "category_ar": "مطاعم",
    "description_ar": "مطاعم في الرياض",
    "lat": 24.6749932,
    "lng": 46.6246864,
    "neighborhood": "",
    "tags": [],
    "perfect_for": [],
    "price_level": "",
    "opening_hours": "Mo-Su 07:00-01:00",
    "phone": "+966 9200 07498",
    "website": "https://www.urthcaffe.sa/welcome/index",
    "source": "openstreetmap"
  },
  {
    "name_ar": "Canton",
    "name_en": "Canton",
    "category": "restaurants",
    "category_ar": "مطاعم",
    "description_ar": "مطاعم في الرياض",
    "lat": 24.7432578,
    "lng": 46.6792533,
    "neighborhood": "",
    "tags": [],
    "perfect_for": [],
    "price_level": "",
    "opening_hours": "Mo-Su 11:30-23:30",
    "phone": "+966 9200 00129",
    "website": "https://canton-express.com",
    "source": "openstreetmap"
  },
  {
    "name_ar": "Signor Sassi",
    "name_en": "Signor Sassi",
    "category": "restaurants",
    "category_ar": "مطاعم",
    "description_ar": "مطاعم في الرياض",
    "lat": 24.6996074,
    "lng": 46.7047665,
    "neighborhood": "",
    "tags": [],
    "perfect_for": [],
    "price_level": "",
    "opening_hours": "Mo-We,Sa-Su 13:00-24:00; Th-Fr 13:00-01:00",
    "phone": "+966 9200 11877",
    "website": "",
    "source": "openstreetmap"
  },
  {
    "name_ar": "Crazy Pizza",
    "name_en": "Crazy Pizza",
    "category": "restaurants",
    "category_ar": "مطاعم",
    "description_ar": "مطاعم في الرياض",
    "lat": 24.7057895,
    "lng": 46.7053592,
    "neighborhood": "",
    "tags": [],
    "perfect_for": [],
    "price_level": "",
    "opening_hours": "Mo-We,Sa-Su 13:00-24:00; Th-Fr 13:00-01:00",
    "phone": "+966 9200 07275",
    "website": "",
    "source": "openstreetmap"
  },
  {
    "name_ar": "Myazu",
    "name_en": "Myazu",
    "category": "restaurants",
    "category_ar": "مطاعم",
    "description_ar": "مطاعم في الرياض",
    "lat": 24.6999939,
    "lng": 46.7048928,
    "neighborhood": "",
    "tags": [],
    "perfect_for": [],
    "price_level": "",
    "opening_hours": "Mo-We,Sa-Su 13:00-24:00; Th-Fr 13:00-01:00",
    "phone": "+966 9200 09686",
    "website": "",
    "source": "openstreetmap"
  },
  {
    "name_ar": "Agio",
    "name_en": "Agio",
    "category": "restaurants",
    "category_ar": "مطاعم",
    "description_ar": "مطاعم في الرياض",
    "lat": 24.7521049,
    "lng": 46.624429,
    "neighborhood": "",
    "tags": [],
    "perfect_for": [],
    "price_level": "",
    "opening_hours": "Mo-We,Sa-Su 13:00-24:00; Th-Fr 13:00-01:00",
    "phone": "+966 9200 13860",
    "website": "",
    "source": "openstreetmap"
  },
  {
    "name_ar": "San Carlo Cicchetti",
    "name_en": "San Carlo Cicchetti",
    "category": "restaurants",
    "category_ar": "مطاعم",
    "description_ar": "مطاعم في الرياض",
    "lat": 24.7012182,
    "lng": 46.705378,
    "neighborhood": "",
    "tags": [],
    "perfect_for": [],
    "price_level": "",
    "opening_hours": "Mo-We,Sa-Su 13:00-24:00; Th-Fr 13:00-01:00",
    "phone": "+966 9200 10679",
    "website": "",
    "source": "openstreetmap"
  },
  {
    "name_ar": "Coya",
    "name_en": "Coya",
    "category": "restaurants",
    "category_ar": "مطاعم",
    "description_ar": "مطاعم في الرياض",
    "lat": 24.7045628,
    "lng": 46.7057789,
    "neighborhood": "",
    "tags": [],
    "perfect_for": [],
    "price_level": "",
    "opening_hours": "Mo-We,Sa 13:00-24:00; Th-Fr 13:00-01:00",
    "phone": "+966 9200 10352",
    "website": "",
    "source": "openstreetmap"
  },
  {
    "name_ar": "سرمديه كافيه",
    "name_en": "سرمديه كافيه",
    "category": "restaurants",
    "category_ar": "مطاعم",
    "description_ar": "مطاعم في الرياض",
    "lat": 24.7896153,
    "lng": 46.8150774,
    "neighborhood": "",
    "tags": [],
    "perfect_for": [],
    "price_level": "",
    "opening_hours": "24/7",
    "phone": "+966502362024",
    "website": "",
    "source": "openstreetmap"
  },
  {
    "name_ar": "Loom",
    "name_en": "Loom",
    "category": "restaurants",
    "category_ar": "مطاعم",
    "description_ar": "مطاعم في الرياض",
    "lat": 24.7587139,
    "lng": 46.6864604,
    "neighborhood": "",
    "tags": [],
    "perfect_for": [],
    "price_level": "",
    "opening_hours": "",
    "phone": "",
    "website": "",
    "source": "openstreetmap"
  },
  {
    "name_ar": "محمصة ومقهى مود ماسترز للقهوة المختصة",
    "name_en": "Mood Master Specialty Coffee Roasters and Cafe",
    "category": "restaurants",
    "category_ar": "مطاعم",
    "description_ar": "مطاعم في الرياض",
    "lat": 24.8013936,
    "lng": 46.7071438,
    "neighborhood": "",
    "tags": [],
    "perfect_for": [],
    "price_level": "",
    "opening_hours": "",
    "phone": "",
    "website": "",
    "source": "openstreetmap"
  },
  {
    "name_ar": "بو قهوة مختصة",
    "name_en": "Bow Specialty Coffee",
    "category": "restaurants",
    "category_ar": "مطاعم",
    "description_ar": "مطاعم في الرياض",
    "lat": 24.7954245,
    "lng": 46.7037951,
    "neighborhood": "",
    "tags": [],
    "perfect_for": [],
    "price_level": "",
    "opening_hours": "",
    "phone": "",
    "website": "",
    "source": "openstreetmap"
  },
  {
    "name_ar": "شاي شبرا",
    "name_en": "شاي شبرا",
    "category": "restaurants",
    "category_ar": "مطاعم",
    "description_ar": "مطاعم في الرياض",
    "lat": 24.7976824,
    "lng": 46.7082359,
    "neighborhood": "",
    "tags": [],
    "perfect_for": [],
    "price_level": "",
    "opening_hours": "24/7",
    "phone": "",
    "website": "",
    "source": "openstreetmap"
  },
  {
    "name_ar": "كاكتي",
    "name_en": "Cacti Cafe",
    "category": "restaurants",
    "category_ar": "مطاعم",
    "description_ar": "مطاعم في الرياض",
    "lat": 24.8340533,
    "lng": 46.7355671,
    "neighborhood": "",
    "tags": [],
    "perfect_for": [],
    "price_level": "",
    "opening_hours": "24/7",
    "phone": "",
    "website": "",
    "source": "openstreetmap"
  },
  {
    "name_ar": "كهڤا",
    "name_en": "KHVA Cafe",
    "category": "restaurants",
    "category_ar": "مطاعم",
    "description_ar": "مطاعم في الرياض",
    "lat": 24.8340814,
    "lng": 46.7356202,
    "neighborhood": "",
    "tags": [],
    "perfect_for": [],
    "price_level": "",
    "opening_hours": "24/7",
    "phone": "",
    "website": "",
    "source": "openstreetmap"
  },